broker,direction,district,fecha_publicacion,idCliente,lat,lon,portal,supTotal,supUtil,tipo,title,url,valor,vivienda
Sherpas Propiedades,Santa Isabel 951 Pasos Del Metro Parqu,santiago,05-09-2019,5056238,-33.4508018,-70.6485977,Portal Inmobiliario,22,1,arriendo,Santa Isabel 951 Pasos Del Metro Parqu,https://www.portalinmobiliario.com/arriendo/departamento/santiago-metropolitana/5056238-santa-isabel-951-pasos-del-metro-parqu-uda,270000,departamento
Gesec Propiedades Spa,"Mosqueto 429, Santiago - Departamento 1401",santiago,19-11-2019,5194903,-33.437397,-70.6441498,Portal Inmobiliario,55,55,arriendo,"Mosqueto 429, Santiago - Departamento 1401",https://www.portalinmobiliario.com/arriendo/departamento/santiago-metropolitana/5194903-mosqueto-429-santiago-departamento-1401-uda,500000,departamento
Pedro Faundez,Metro Toesca,santiago,09-12-2019,5267053,-33.4489784,-70.6691742,Portal Inmobiliario,43,40,arriendo,Metro Toesca,https://www.portalinmobiliario.com/arriendo/departamento/santiago-metropolitana/5267053-metro-toesca-uda,430000,departamento
Christian Bernaldo De Quiros,Metros Bellas Artes Y Plza. De Armas,santiago,03-12-2019,5159562,-33.4345856,-70.6485672,Portal Inmobiliario,70,70,arriendo,Metros Bellas Artes Y Plza. De Armas,https://www.portalinmobiliario.com/arriendo/departamento/santiago-metropolitana/5159562-metros-bellas-artes-y-plza-de-armas-uda,500000,departamento
Jaime Aguila,"Santa Elena 1722, Santiago",santiago,25-11-2019,5227705,-33.4663658,-70.6278839,Portal Inmobiliario,34,34,arriendo,"Santa Elena 1722, Santiago",https://www.portalinmobiliario.com/arriendo/departamento/santiago-metropolitana/5227705-santa-elena-1722-santiago-uda,300000,departamento
Propiedades La Viña Ltda.,Vicuña Mackenna 563 - Departamento 1301 B,santiago,11-12-2019,5278675,-33.4484024,-70.6322021,Portal Inmobiliario,100,100,arriendo,Vicuña Mackenna 563 - Departamento 1301 B,https://www.portalinmobiliario.com/arriendo/departamento/santiago-metropolitana/5278675-vicuna-mackenna-563-departamento-1301-b-uda,480000,departamento
Eugenia Stoltze,"Nueva San Martín 1490, Santiago",santiago,03-12-2019,5250897,-33.4436531,-70.6572876,Portal Inmobiliario,48,48,arriendo,"Nueva San Martín 1490, Santiago",https://www.portalinmobiliario.com/arriendo/departamento/santiago-metropolitana/5250897-nueva-san-martin-1490-santiago-uda,350000,departamento
Medina & Cia. Propiedades,Morande  / Rosas,santiago,13-12-2019,5284194,-33.4352074,-70.6542816,Portal Inmobiliario,33,33,arriendo,Morande  / Rosas,https://www.portalinmobiliario.com/arriendo/departamento/santiago-metropolitana/5284194-morande-rosas-uda,270000,departamento
Javier Cataldo,"Avenida Santa Rosa 325, Santiago - Departamento 1311",santiago,09-12-2019,5268211,-33.4486389,-70.6449738,Portal Inmobiliario,67,67,arriendo,"Avenida Santa Rosa 325, Santiago - Departamento 1311",https://www.portalinmobiliario.com/arriendo/departamento/santiago-metropolitana/5268211-avenida-santa-rosa-325-santiago-departamento-1311-uda,430000,departamento
Rk Propiedades,Marin / Av. Portugal,santiago,12-12-2019,5204067,-33.4459686,-70.6373444,Portal Inmobiliario,35,35,arriendo,Marin / Av. Portugal,https://www.portalinmobiliario.com/arriendo/departamento/santiago-metropolitana/5204067-marin-av-portugal-uda,285000,departamento
Sáa & Risco Propiedades,Increíbles Lofts Amoblados,santiago,13-12-2019,5269088,-33.4459267,-70.6396561,Portal Inmobiliario,42,40,arriendo,Increíbles Lofts Amoblados,https://www.portalinmobiliario.com/arriendo/departamento/santiago-metropolitana/5269088-increibles-lofts-amoblados-uda,550000,departamento
Salvat Propiedades,Moneda 1576,santiago,13-12-2019,5285346,-33.4428291,-70.6587372,Portal Inmobiliario,50,50,arriendo,Moneda 1576,https://www.portalinmobiliario.com/arriendo/departamento/santiago-metropolitana/5285346-moneda-1576-uda,350000,departamento
247urbano,Serrano 611,santiago,11-12-2019,5274640,-33.4525261,-70.6478653,Portal Inmobiliario,62,56,arriendo,Serrano 611,https://www.portalinmobiliario.com/arriendo/departamento/santiago-metropolitana/5274640-serrano-611-uda,380000,departamento
Etchepare & Asociados,Santa Elena / Ñuble,santiago,11-12-2019,5272881,-33.4667778,-70.6279526,Portal Inmobiliario,35,33,arriendo,Santa Elena / Ñuble,https://www.portalinmobiliario.com/arriendo/departamento/santiago-metropolitana/5272881-santa-elena-nuble-uda,255000,departamento
Vivanco Propiedades,Excelente Departamento A Pasos Del Metro,santiago,10-12-2019,5272553,-33.4502983,-70.6429977,Portal Inmobiliario,78,75,arriendo,Excelente Departamento A Pasos Del Metro,https://www.portalinmobiliario.com/arriendo/departamento/santiago-metropolitana/5272553-excelente-departamento-a-pasos-del-metro-uda,530000,departamento
Vía Urbana Propiedades,Metro Santa Lucia,santiago,12-12-2019,5281747,-33.4456825,-70.6453857,Portal Inmobiliario,36,32,arriendo,Metro Santa Lucia,https://www.portalinmobiliario.com/arriendo/departamento/santiago-metropolitana/5281747-metro-santa-lucia-uda,300000,departamento
Oss Properties Ltda.,Parque Forestal,santiago,12-12-2019,5281548,-33.4321823,-70.6584396,Portal Inmobiliario,35,34,arriendo,Parque Forestal,https://www.portalinmobiliario.com/arriendo/departamento/santiago-metropolitana/5281548-parque-forestal-uda,350000,departamento
Alm Abogados Y Corredores Asociados.,San Diego 313,santiago,16-12-2019,5288358,-33.4495087,-70.6509094,Portal Inmobiliario,27,27,arriendo,San Diego 313,https://www.portalinmobiliario.com/arriendo/departamento/santiago-metropolitana/5288358-san-diego-313-uda,240000,departamento
Stoffel Gestión Inmobiliaria,Metro Matta.,santiago,11-12-2019,5275073,-33.4583664,-70.6441345,Portal Inmobiliario,48,45,arriendo,Metro Matta.,https://www.portalinmobiliario.com/arriendo/departamento/santiago-metropolitana/5275073-metro-matta-uda,370000,departamento
Bruno Finsterbusch,Metro U.católica,santiago,16-12-2019,5205991,-33.4457245,-70.6376801,Portal Inmobiliario,100,80,arriendo,Metro U.católica,https://www.portalinmobiliario.com/arriendo/departamento/santiago-metropolitana/5205991-metro-ucatolica-uda,520000,departamento
Abrace,Departamento Amoblado 2 Dorm Y 1 Baños 2 Cuadras Del Metro Universidad De Chile,santiago,10-12-2019,5273562,-33.446003,-70.6487503,Portal Inmobiliario,43,43,arriendo,Departamento Amoblado 2 Dorm Y 1 Baños 2 Cuadras Del Metro Universidad De Chile,https://www.portalinmobiliario.com/arriendo/departamento/santiago-metropolitana/5273562-departamento-amoblado-2-dorm-y-1-banos-2-cuadras-del-metro-universidad-de-chile-uda,415000,departamento
Easy Prop,Club Hipico / Blanco Encalada - Metro Toes,santiago,12-12-2019,5279214,-33.4557991,-70.6651001,Portal Inmobiliario,48,45,arriendo,Club Hipico / Blanco Encalada - Metro Toes,https://www.portalinmobiliario.com/arriendo/departamento/santiago-metropolitana/5279214-club-hipicoblanco-encalada-metro-toes-uda,425000,departamento
Century 21 Orel,Almirante Latorre,santiago,12-12-2019,5280144,-33.4552002,-70.6641006,Portal Inmobiliario,55,50,arriendo,Almirante Latorre,https://www.portalinmobiliario.com/arriendo/departamento/santiago-metropolitana/5280144-almirante-latorre-uda,420000,departamento
Patrimonio Inmobiliario Limitada,General Mackenna 1555,santiago,13-12-2019,5284825,-33.4332275,-70.659729,Portal Inmobiliario,54,54,arriendo,General Mackenna 1555,https://www.portalinmobiliario.com/arriendo/departamento/santiago-metropolitana/5284825-general-mackenna-1555-uda,400000,departamento
C. R. Propiedades,Padre Miguel De Olivares 1444,santiago,13-12-2019,5284521,-33.4491348,-70.6554108,Portal Inmobiliario,36,33,arriendo,Padre Miguel De Olivares 1444,https://www.portalinmobiliario.com/arriendo/departamento/santiago-metropolitana/5284521-padre-miguel-de-olivares-1444-uda,298000,departamento
González López Propiedades,Nataniel Cox / Calle Victoria,santiago,13-12-2019,5028511,-33.4639969,-70.6510773,Portal Inmobiliario,52,52,arriendo,Nataniel Cox / Calle Victoria,https://www.portalinmobiliario.com/arriendo/departamento/santiago-metropolitana/5028511-nataniel-cox-calle-victoria-uda,400000,departamento
Abbo Limitada,Jose Miguel Carrera 359,santiago,13-12-2019,5282249,-33.46912,-70.6419983,Portal Inmobiliario,40,40,arriendo,Jose Miguel Carrera 359,https://www.portalinmobiliario.com/arriendo/departamento/santiago-metropolitana/5282249-jose-miguel-carrera-359-uda,400000,departamento
Alm Abogados Y Corredores Asociados.,Avenida Portugal 941,santiago,16-12-2019,5287571,-33.454464,-70.6338272,Portal Inmobiliario,50,45,arriendo,Avenida Portugal 941,https://www.portalinmobiliario.com/arriendo/departamento/santiago-metropolitana/5287571-avenida-portugal-941-uda,365000,departamento
Alm Abogados Y Corredores Asociados.,Santo Domingo 755,santiago,16-12-2019,5288246,-33.4354057,-70.6481247,Portal Inmobiliario,42,40,arriendo,Santo Domingo 755,https://www.portalinmobiliario.com/arriendo/departamento/santiago-metropolitana/5288246-santo-domingo-755-uda,280000,departamento
Castilla Propiedades,Avenida Portugal 941,santiago,16-12-2019,5287897,-33.454464,-70.6338272,Portal Inmobiliario,54,50,arriendo,Avenida Portugal 941,https://www.portalinmobiliario.com/arriendo/departamento/santiago-metropolitana/5287897-avenida-portugal-941-uda,400000,departamento
Patrimonio Inmobiliario Limitada,San Pablo 1503,santiago,13-12-2019,5284556,-33.4341965,-70.658905,Portal Inmobiliario,46,46,arriendo,San Pablo 1503,https://www.portalinmobiliario.com/arriendo/departamento/santiago-metropolitana/5284556-san-pablo-1503-uda,350000,departamento
Alm Abogados Y Corredores Asociados.,Santo Domingo 3905,santiago,16-12-2019,5287447,-33.438961,-70.6885681,Portal Inmobiliario,33,33,arriendo,Santo Domingo 3905,https://www.portalinmobiliario.com/arriendo/departamento/santiago-metropolitana/5287447-santo-domingo-3905-uda,245000,departamento
Abbo Limitada,Romero 2385,santiago,13-12-2019,5284680,-33.4465866,-70.6690063,Portal Inmobiliario,60,60,arriendo,Romero 2385,https://www.portalinmobiliario.com/arriendo/departamento/santiago-metropolitana/5284680-romero-2385-uda,550000,departamento
Munay Gestión Inmobiliaria,Huerfanos 1400,santiago,14-12-2019,5285533,-33.4403992,-70.6567001,Portal Inmobiliario,25,25,arriendo,Huerfanos 1400,https://www.portalinmobiliario.com/arriendo/departamento/santiago-metropolitana/5285533-huerfanos-1400-uda,300000,departamento
Maximizar Liderazgo Inmobiliario,Metro Toesca / Parque O´higgins - Con Bodega - Disponible A Partir Del 01 Diciembre,santiago,13-12-2019,5282761,-33.4572487,-70.6523972,Portal Inmobiliario,35,33,arriendo,Metro Toesca / Parque O´higgins - Con Bodega - Disponible A Partir Del 01 Diciembre,https://www.portalinmobiliario.com/arriendo/departamento/santiago-metropolitana/5282761-metro-toesca-parque-ohiggins-con-bodega-disponible-a-partir-del-01-diciembre-uda,275000,departamento
Berrios Zegers Propiedades,Parque De Los Reyes,santiago,11-12-2019,5265513,-33.4332008,-70.6596985,Portal Inmobiliario,57,55,arriendo,Parque De Los Reyes,https://www.portalinmobiliario.com/arriendo/departamento/santiago-metropolitana/5265513-parque-de-los-reyes-uda,450000,departamento
Arriendoasegurado.com,Carmen,santiago,12-12-2019,5280544,-33.4506989,-70.6414032,Portal Inmobiliario,59,57,arriendo,Carmen,https://www.portalinmobiliario.com/arriendo/departamento/santiago-metropolitana/5280544-carmen-uda,480000,departamento
Arriendoasegurado.com,Sargento Aldea,santiago,12-12-2019,5280541,-33.4690018,-70.6490021,Portal Inmobiliario,42,40,arriendo,Sargento Aldea,https://www.portalinmobiliario.com/arriendo/departamento/santiago-metropolitana/5280541-sargento-aldea-uda,14,departamento
Corredores Y Gestores Asociados,Coquimbo 1331 - Departamento 604a,santiago,15-12-2019,5286816,-33.4572487,-70.6523972,Portal Inmobiliario,42,41,arriendo,Coquimbo 1331 - Departamento 604a,https://www.portalinmobiliario.com/arriendo/departamento/santiago-metropolitana/5286816-coquimbo-1331-departamento-604a-uda,370000,departamento
Amity Propiedades,Presidente Balmaceda 2190 - Departamento 2106,santiago,14-12-2019,5286157,-33.4297295,-70.6678162,Portal Inmobiliario,40,35,arriendo,Presidente Balmaceda 2190 - Departamento 2106,https://www.portalinmobiliario.com/arriendo/departamento/santiago-metropolitana/5286157-presidente-balmaceda-2190-departamento-2106-uda,300000,departamento
Rothery & Valdés Propiedades,Metro Cal Y Canto - Dpto. Studio,santiago,10-12-2019,5231431,-33.4332008,-70.6596985,Portal Inmobiliario,28,28,arriendo,Metro Cal Y Canto - Dpto. Studio,https://www.portalinmobiliario.com/arriendo/departamento/santiago-metropolitana/5231431-metro-cal-y-canto-dpto-studio-uda,280000,departamento
Arriendoasegurado.com,Lira,santiago,12-12-2019,5280549,-33.4464989,-70.6395035,Portal Inmobiliario,44,40,arriendo,Lira,https://www.portalinmobiliario.com/arriendo/departamento/santiago-metropolitana/5280549-lira-uda,380000,departamento
Etchepare & Asociados,Serrano / Metro Universidad De Chile,santiago,11-12-2019,5186781,-33.4457054,-70.6488876,Portal Inmobiliario,35,35,arriendo,Serrano / Metro Universidad De Chile,https://www.portalinmobiliario.com/arriendo/departamento/santiago-metropolitana/5186781-serrano-metro-universidad-de-chile-uda,290000,departamento
Arriendoasegurado.com,Lord Cochrane,santiago,12-12-2019,5280545,-33.4504013,-70.6548004,Portal Inmobiliario,64,60,arriendo,Lord Cochrane,https://www.portalinmobiliario.com/arriendo/departamento/santiago-metropolitana/5280545-lord-cochrane-uda,400000,departamento
M&m Propiedades,Blanco Encalada 1727,santiago,10-12-2019,5271999,-33.4563675,-70.6585617,Portal Inmobiliario,64,58,arriendo,Blanco Encalada 1727,https://www.portalinmobiliario.com/arriendo/departamento/santiago-metropolitana/5271999-blanco-encalada-1727-uda,435000,departamento
González López Propiedades,Nataniel Cox / Calle Victoria,santiago,13-12-2019,5028495,-33.4640083,-70.6511612,Portal Inmobiliario,52,52,arriendo,Nataniel Cox / Calle Victoria,https://www.portalinmobiliario.com/arriendo/departamento/santiago-metropolitana/5028495-nataniel-cox-calle-victoria-uda,350000,departamento
Fuenzalida Propiedades Stgo. Centro,Parque Almagro - Coquimbo / Nataniel Cox,santiago,11-12-2019,5194646,-33.4571991,-70.6516037,Portal Inmobiliario,35,1,arriendo,Parque Almagro - Coquimbo / Nataniel Cox,https://www.portalinmobiliario.com/arriendo/departamento/santiago-metropolitana/5194646-parque-almagro-coquimbonataniel-cox-uda,300000,departamento
Amity Propiedades,Presidente Balmaceda 2190 - Departamento 517,santiago,14-12-2019,5286139,-33.4297295,-70.6678162,Portal Inmobiliario,34,30,arriendo,Presidente Balmaceda 2190 - Departamento 517,https://www.portalinmobiliario.com/arriendo/departamento/santiago-metropolitana/5286139-presidente-balmaceda-2190-departamento-517-uda,260000,departamento
Go Propiedades,Metro Toesca / Avenida Ejército Esquina Santa Isabel,santiago,09-12-2019,5269689,-33.4535904,-70.6601181,Portal Inmobiliario,74,37,arriendo,Metro Toesca / Avenida Ejército Esquina Santa Isabel,https://www.portalinmobiliario.com/arriendo/departamento/santiago-metropolitana/5269689-metro-toesca-avenida-ejercito-esquina-santa-isabel-uda,280000,departamento
Arriendoasegurado.com,Tarapacá,santiago,12-12-2019,5280548,-33.4478989,-70.6539001,Portal Inmobiliario,73,70,arriendo,Tarapacá,https://www.portalinmobiliario.com/arriendo/departamento/santiago-metropolitana/5280548-tarapaca-uda,530000,departamento
Karsten Corredores De Propiedades Spa,Avenida Portugal 941,santiago,12-12-2019,5280311,-33.454464,-70.6338272,Portal Inmobiliario,37,36,arriendo,Avenida Portugal 941,https://www.portalinmobiliario.com/arriendo/departamento/santiago-metropolitana/5280311-avenida-portugal-941-uda,300000,departamento
Erika Jadue J. Broker Y Corredor Inmobiliario,Tarapacá 1324,santiago,11-12-2019,5154071,-33.4480324,-70.653862,Portal Inmobiliario,40,40,arriendo,Tarapacá 1324,https://www.portalinmobiliario.com/arriendo/departamento/santiago-metropolitana/5154071-tarapaca-1324-uda,285000,departamento
Horos Propiedades,Arturo Prat 1450 - Departamento 1309,santiago,13-12-2019,5282619,-33.4646721,-70.646843,Portal Inmobiliario,20,20,arriendo,Arturo Prat 1450 - Departamento 1309,https://www.portalinmobiliario.com/arriendo/departamento/santiago-metropolitana/5282619-arturo-prat-1450-departamento-1309-uda,220000,departamento
Santiago Rubio Propiedades,Avenida Manuel Antonio Matta 949 Santiago,santiago,10-12-2019,5272243,-33.4582329,-70.6432877,Portal Inmobiliario,37,37,arriendo,Avenida Manuel Antonio Matta 949 Santiago,https://www.portalinmobiliario.com/arriendo/departamento/santiago-metropolitana/5272243-avenida-manuel-antonio-matta-949-santiago-uda,260000,departamento
Prodesco,San Isidro 204,santiago,13-12-2019,5201047,-33.4458084,-70.643959,Portal Inmobiliario,55,55,arriendo,San Isidro 204,https://www.portalinmobiliario.com/arriendo/departamento/santiago-metropolitana/5201047-san-isidro-204-uda,340000,departamento
Saenger Propiedades,Metro Santa Lucia / Metro Universidad De Chile,santiago,14-12-2019,5286510,-33.4486122,-70.6471024,Portal Inmobiliario,59,55,arriendo,Metro Santa Lucia / Metro Universidad De Chile,https://www.portalinmobiliario.com/arriendo/departamento/santiago-metropolitana/5286510-metro-santa-lucia-metro-universidad-de-chile-uda,380000,departamento
Maximizar Liderazgo Inmobiliario,Metro Santa Lucia / Disponibilidad Inmediata,santiago,13-12-2019,5282755,-33.4485664,-70.6452179,Portal Inmobiliario,35,35,arriendo,Metro Santa Lucia / Disponibilidad Inmediata,https://www.portalinmobiliario.com/arriendo/departamento/santiago-metropolitana/5282755-metro-santa-lucia-disponibilidad-inmediata-uda,280000,departamento
Varela Propiedades,Manuel Antonio Tocornal 532,santiago,15-12-2019,5286753,-33.4497757,-70.6399231,Portal Inmobiliario,33,33,arriendo,Manuel Antonio Tocornal 532,https://www.portalinmobiliario.com/arriendo/departamento/santiago-metropolitana/5286753-manuel-antonio-tocornal-532-uda,200000,departamento
Jose Diaz Leon,Sazié 2032,santiago,10-12-2019,5191609,-33.4501991,-70.663826,Portal Inmobiliario,45,45,arriendo,Sazié 2032,https://www.portalinmobiliario.com/arriendo/departamento/santiago-metropolitana/5191609-sazie-2032-uda,350000,departamento
Assetplan Asesores De Inversión S.a.,Vicuña Mackenna 327,santiago,09-12-2019,5270066,-33.445816,-70.6330109,Portal Inmobiliario,30,30,arriendo,Vicuña Mackenna 327,https://www.portalinmobiliario.com/arriendo/departamento/santiago-metropolitana/5270066-vicuna-mackenna-327-uda,285000,departamento
T Y C Gestión Inmobiliaria,Arturo Prat 1312 - Departamento 1121,santiago,11-12-2019,5274719,-33.4624443,-70.6465454,Portal Inmobiliario,40,40,arriendo,Arturo Prat 1312 - Departamento 1121,https://www.portalinmobiliario.com/arriendo/departamento/santiago-metropolitana/5274719-arturo-prat-1312-departamento-1121-uda,350000,departamento
Partners Inmobiliarios,Martínez De Rozas 2164,santiago,11-12-2019,5112178,-33.4337234,-70.6671219,Portal Inmobiliario,46,46,arriendo,Martínez De Rozas 2164,https://www.portalinmobiliario.com/arriendo/departamento/santiago-metropolitana/5112178-martinez-de-rozas-2164-uda,350000,departamento
Ravello Propiedades,San Diego / Pedro Lagos - Departamento Estudio,santiago,10-12-2019,5272119,-33.4663429,-70.6488876,Portal Inmobiliario,25,25,arriendo,San Diego / Pedro Lagos - Departamento Estudio,https://www.portalinmobiliario.com/arriendo/departamento/santiago-metropolitana/5272119-san-diegopedro-lagos-departamento-estudio-uda,250000,departamento
Alejandro Jaime V. & Asociados,Paseo Barrio Lastarria,santiago,09-12-2019,5242884,-33.4393997,-70.6414032,Portal Inmobiliario,36,36,arriendo,Paseo Barrio Lastarria,https://www.portalinmobiliario.com/arriendo/departamento/santiago-metropolitana/5242884-paseo-barrio-lastarria-uda,370000,departamento
Málaga Propiedades,Departamento Ubicado En Metro Bellas Artes.,santiago,10-12-2019,5273451,-33.4357185,-70.6465759,Portal Inmobiliario,60,60,arriendo,Departamento Ubicado En Metro Bellas Artes.,https://www.portalinmobiliario.com/arriendo/departamento/santiago-metropolitana/5273451-departamento-ubicado-en-metro-bellas-artes-uda,450000,departamento
Habitachile,Club Hípico 1240,santiago,12-12-2019,5222639,-33.4628716,-70.6645279,Portal Inmobiliario,59,58,arriendo,Club Hípico 1240,https://www.portalinmobiliario.com/arriendo/departamento/santiago-metropolitana/5222639-club-hipico-1240-uda,350000,departamento
Limb Lands & Properties,General Jofré / Santa Isabel,santiago,10-12-2019,5273493,-33.444416,-70.634903,Portal Inmobiliario,63,60,arriendo,General Jofré / Santa Isabel,https://www.portalinmobiliario.com/arriendo/departamento/santiago-metropolitana/5273493-general-jofre-santa-isabel-uda,450000,departamento
Prodesco,García Reyes 71,santiago,13-12-2019,5228014,-33.445343,-70.6709747,Portal Inmobiliario,45,45,arriendo,García Reyes 71,https://www.portalinmobiliario.com/arriendo/departamento/santiago-metropolitana/5228014-garcia-reyes-71-uda,350000,departamento
Agrega Valor Inmobiliario,General Mackenna 1555 - Departamento 1608,santiago,09-12-2019,5270413,-33.4332275,-70.659729,Portal Inmobiliario,54,51,arriendo,General Mackenna 1555 - Departamento 1608,https://www.portalinmobiliario.com/arriendo/departamento/santiago-metropolitana/5270413-general-mackenna-1555-departamento-1608-uda,450000,departamento
Abbo Limitada,General Mackenna 1555,santiago,13-12-2019,5284900,-33.4332275,-70.659729,Portal Inmobiliario,52,52,arriendo,General Mackenna 1555,https://www.portalinmobiliario.com/arriendo/departamento/santiago-metropolitana/5284900-general-mackenna-1555-uda,450000,departamento
Assetplan Asesores De Inversión S.a.,Vicuña Mackenna 2004,santiago,11-12-2019,5274402,-33.4703941,-70.6259918,Portal Inmobiliario,36,33,arriendo,Vicuña Mackenna 2004,https://www.portalinmobiliario.com/arriendo/departamento/santiago-metropolitana/5274402-vicuna-mackenna-2004-uda,345000,departamento
Re/max Gold,Monjitas-metros Bellas Artes Y Plaza De,santiago,13-12-2019,5283072,-33.4370995,-70.6476974,Portal Inmobiliario,36,34,arriendo,Monjitas-metros Bellas Artes Y Plaza De,https://www.portalinmobiliario.com/arriendo/departamento/santiago-metropolitana/5283072-monjitasmetros-bellas-artes-y-plaza-de-uda,300000,departamento
Portilla Propiedades,Huerfanos / Morande,santiago,13-12-2019,5261527,-33.4398994,-70.6536484,Portal Inmobiliario,52,52,arriendo,Huerfanos / Morande,https://www.portalinmobiliario.com/arriendo/departamento/santiago-metropolitana/5261527-huerfanos-morande-uda,350000,departamento
Abbo Limitada,General Mackenna 1555,santiago,13-12-2019,5282560,-33.4332275,-70.659729,Portal Inmobiliario,52,52,arriendo,General Mackenna 1555,https://www.portalinmobiliario.com/arriendo/departamento/santiago-metropolitana/5282560-general-mackenna-1555-uda,450000,departamento
Consultors,Carmen / Santa Isabel / Tranquilidad,santiago,16-12-2019,5287872,-33.4491386,-70.6414566,Portal Inmobiliario,62,57,arriendo,Carmen / Santa Isabel / Tranquilidad,https://www.portalinmobiliario.com/arriendo/departamento/santiago-metropolitana/5287872-carmen-santa-isabel-tranquilidad-uda,380000,departamento
Vía Urbana Propiedades,Dpto. Mariposa!!  San Isidro,santiago,13-12-2019,5285022,-33.4506187,-70.642868,Portal Inmobiliario,54,52,arriendo,Dpto. Mariposa!!  San Isidro,https://www.portalinmobiliario.com/arriendo/departamento/santiago-metropolitana/5285022-dpto-mariposa-san-isidro-uda,390000,departamento
Prosep Propiedades,"Esperanza 728, Barrio Yungay",santiago,13-12-2019,5283657,-33.4364777,-70.6759109,Portal Inmobiliario,52,52,arriendo,"Esperanza 728, Barrio Yungay",https://www.portalinmobiliario.com/arriendo/departamento/santiago-metropolitana/5283657-esperanza-728-barrio-yungay-uda,410000,departamento
Gethome,Angamos,santiago,12-12-2019,5279209,-33.4469757,-70.6386032,Portal Inmobiliario,48,48,arriendo,Angamos,https://www.portalinmobiliario.com/arriendo/departamento/santiago-metropolitana/5279209-angamos-uda,440000,departamento
Propiedades Valeriasoledad Y Asociados,Claudio Gay 2440,santiago,15-12-2019,5286588,-33.45401,-70.6586609,Portal Inmobiliario,51,47,arriendo,Claudio Gay 2440,https://www.portalinmobiliario.com/arriendo/departamento/santiago-metropolitana/5286588-claudio-gay-2440-uda,300000,departamento
Nexxos,Sargento Aldea 1180,santiago,09-12-2019,5270306,-33.4687996,-70.6492996,Portal Inmobiliario,39,37,arriendo,Sargento Aldea 1180,https://www.portalinmobiliario.com/arriendo/departamento/santiago-metropolitana/5270306-sargento-aldea-1180-uda,360000,departamento
Saenger Propiedades,Metro Santa Lucia / Metro Universidad De Chile,santiago,14-12-2019,5286511,-33.4486122,-70.6471024,Portal Inmobiliario,40,37,arriendo,Metro Santa Lucia / Metro Universidad De Chile,https://www.portalinmobiliario.com/arriendo/departamento/santiago-metropolitana/5286511-metro-santa-lucia-metro-universidad-de-chile-uda,300000,departamento
Isabel Vilches,"San Francisco & Eyzaguirre, Santiago - Departamento 1204a",santiago,09-12-2019,5270710,-33.4520569,-70.6470718,Portal Inmobiliario,43,43,arriendo,"San Francisco & Eyzaguirre, Santiago - Departamento 1204a",https://www.portalinmobiliario.com/arriendo/departamento/santiago-metropolitana/5270710-san-francisco-eyzaguirre-santiago-departamento-1204a-uda,350000,departamento
Saenger Propiedades,Metro Universidad Catolica /  Universidad Catolica De Chile,santiago,10-12-2019,5271617,-33.4428444,-70.6421509,Portal Inmobiliario,60,60,arriendo,Metro Universidad Catolica /  Universidad Catolica De Chile,https://www.portalinmobiliario.com/arriendo/departamento/santiago-metropolitana/5271617-metro-universidad-catolica-universidad-catolica-de-chile-uda,420000,departamento
Ruben Alvarez,Metro Toesca,santiago,09-12-2019,5270941,-33.4553871,-70.6563492,Portal Inmobiliario,41,34,arriendo,Metro Toesca,https://www.portalinmobiliario.com/arriendo/departamento/santiago-metropolitana/5270941-metro-toesca-uda,380000,departamento
C & H Propiedades,Padre Miguel De Olivares 1444,santiago,10-12-2019,5272290,-33.4492188,-70.6557693,Portal Inmobiliario,75,75,arriendo,Padre Miguel De Olivares 1444,https://www.portalinmobiliario.com/arriendo/departamento/santiago-metropolitana/5272290-padre-miguel-de-olivares-1444-uda,550000,departamento
Ugarte&didier Propiedades,Vicuña Mackenna 327 - Departamento 1107,santiago,12-12-2019,4236413,-33.445919,-70.6333694,Portal Inmobiliario,38,35,arriendo,Vicuña Mackenna 327 - Departamento 1107,https://www.portalinmobiliario.com/arriendo/departamento/santiago-metropolitana/4236413-vicuna-mackenna-327-departamento-1107-uda,330000,departamento
Maximizar Liderazgo Inmobiliario,Departamento Cerca Metro Santa Ana / Remodelado / Disponibilidad Inmediata,santiago,16-12-2019,5288109,-33.4382858,-70.6576004,Portal Inmobiliario,52,50,arriendo,Departamento Cerca Metro Santa Ana / Remodelado / Disponibilidad Inmediata,https://www.portalinmobiliario.com/arriendo/departamento/santiago-metropolitana/5288109-departamento-cerca-metro-santa-ana-remodelado-disponibilidad-inmediata-uda,400000,departamento
Etchepare & Asociados,Parque Forestal / Metro Baquedano,santiago,11-12-2019,5272473,-33.4371223,-70.6363144,Portal Inmobiliario,238,223,arriendo,Parque Forestal / Metro Baquedano,https://www.portalinmobiliario.com/arriendo/departamento/santiago-metropolitana/5272473-parque-forestal-metro-baquedano-uda,1200000,departamento
Datopropiedades,Santa Victoria 387,santiago,10-12-2019,5272689,-33.4477997,-70.6389008,Portal Inmobiliario,43,38,arriendo,Santa Victoria 387,https://www.portalinmobiliario.com/arriendo/departamento/santiago-metropolitana/5272689-santa-victoria-387-uda,350000,departamento
Ocap,Santa Elena  / Ñuble,santiago,13-12-2019,5282240,-33.4663658,-70.6278839,Portal Inmobiliario,40,37,arriendo,Santa Elena  / Ñuble,https://www.portalinmobiliario.com/arriendo/departamento/santiago-metropolitana/5282240-santa-elena-nuble-uda,340000,departamento
Arriendoasegurado.com,Argomedo,santiago,16-12-2019,5288122,-33.4487991,-70.6327972,Portal Inmobiliario,38,36,arriendo,Argomedo,https://www.portalinmobiliario.com/arriendo/departamento/santiago-metropolitana/5288122-argomedo-uda,330000,departamento
Silberstein Propiedades Ltda.,Santa Victoria 360 - Departamento 1008,santiago,13-12-2019,5284940,-33.4479752,-70.6376419,Portal Inmobiliario,47,45,arriendo,Santa Victoria 360 - Departamento 1008,https://www.portalinmobiliario.com/arriendo/departamento/santiago-metropolitana/5284940-santa-victoria-360-departamento-1008-uda,380000,departamento
Varela Propiedades,Grajales 2045,santiago,15-12-2019,5286760,-33.451313,-70.6638107,Portal Inmobiliario,28,28,arriendo,Grajales 2045,https://www.portalinmobiliario.com/arriendo/departamento/santiago-metropolitana/5286760-grajales-2045-uda,250000,departamento
Vivaqui.com,Amunategui - Gral. Mackenna,santiago,14-12-2019,5285526,-33.4333992,-70.657402,Portal Inmobiliario,35,32,arriendo,Amunategui - Gral. Mackenna,https://www.portalinmobiliario.com/arriendo/departamento/santiago-metropolitana/5285526-amunategui-gral-mackenna-uda,300000,departamento
Varela Propiedades,Carabineros De Chile 22,santiago,15-12-2019,5286764,-33.4385948,-70.635643,Portal Inmobiliario,33,33,arriendo,Carabineros De Chile 22,https://www.portalinmobiliario.com/arriendo/departamento/santiago-metropolitana/5286764-carabineros-de-chile-22-uda,250000,departamento
Re/max Gold,Monjitas-metro Bellas Artes,santiago,13-12-2019,5283071,-33.4370995,-70.6476974,Portal Inmobiliario,36,34,arriendo,Monjitas-metro Bellas Artes,https://www.portalinmobiliario.com/arriendo/departamento/santiago-metropolitana/5283071-monjitasmetro-bellas-artes-uda,300000,departamento
Varela Propiedades,Manuel Antonio Tocornal 532,santiago,15-12-2019,5286750,-33.4497757,-70.6399231,Portal Inmobiliario,30,30,arriendo,Manuel Antonio Tocornal 532,https://www.portalinmobiliario.com/arriendo/departamento/santiago-metropolitana/5286750-manuel-antonio-tocornal-532-uda,250000,departamento
M Díaz Y Compañía Ltda.,Eleuterio Ramírez 780,santiago,16-12-2019,4889801,-33.4484787,-70.646553,Portal Inmobiliario,38,38,arriendo,Eleuterio Ramírez 780,https://www.portalinmobiliario.com/arriendo/departamento/santiago-metropolitana/4889801-eleuterio-ramirez-780-uda,330000,departamento
Alm Abogados Y Corredores Asociados.,San Francisco 242,santiago,16-12-2019,5287498,-33.4473991,-70.646843,Portal Inmobiliario,35,35,arriendo,San Francisco 242,https://www.portalinmobiliario.com/arriendo/departamento/santiago-metropolitana/5287498-san-francisco-242-uda,280000,departamento
Ma Propiedades Y Corretaje,Sazie 2054,santiago,13-12-2019,5285028,-33.46912,-70.6419983,Portal Inmobiliario,43,43,arriendo,Sazie 2054,https://www.portalinmobiliario.com/arriendo/departamento/santiago-metropolitana/5285028-sazie-2054-uda,430000,departamento
Micasa Propiedades,Curicó / Lira,santiago,10-12-2019,5273974,-33.4457741,-70.6411743,Portal Inmobiliario,72,72,arriendo,Curicó / Lira,https://www.portalinmobiliario.com/arriendo/departamento/santiago-metropolitana/5273974-curicolira-uda,400000,departamento
Newplace,Santa Victoria 538,santiago,16-12-2019,5287999,-33.4489136,-70.6425247,Portal Inmobiliario,34,32,arriendo,Santa Victoria 538,https://www.portalinmobiliario.com/arriendo/departamento/santiago-metropolitana/5287999-santa-victoria-538-uda,320000,departamento
Patrimonio Inmobiliario Limitada,Santa Elena 898,santiago,13-12-2019,5284416,-33.4532547,-70.6318893,Portal Inmobiliario,54,54,arriendo,Santa Elena 898,https://www.portalinmobiliario.com/arriendo/departamento/santiago-metropolitana/5284416-santa-elena-898-uda,400000,departamento
Remax Advance Ii,Arturo Prat,santiago,13-12-2019,5283045,-33.4500999,-70.6492996,Portal Inmobiliario,62,59,arriendo,Arturo Prat,https://www.portalinmobiliario.com/arriendo/departamento/santiago-metropolitana/5283045-arturo-prat-uda,450000,departamento
Inmovia,Pje Nueva San Martin 1490 - Metro Moneda,santiago,10-12-2019,5273953,-33.4436989,-70.6573029,Portal Inmobiliario,40,43,arriendo,Pje Nueva San Martin 1490 - Metro Moneda,https://www.portalinmobiliario.com/arriendo/departamento/santiago-metropolitana/5273953-pje-nueva-san-martin-1490-metro-moneda-uda,340000,departamento
Patrimonio Inmobiliario Limitada,San Pablo 1503,santiago,13-12-2019,5284573,-33.4341965,-70.658905,Portal Inmobiliario,46,46,arriendo,San Pablo 1503,https://www.portalinmobiliario.com/arriendo/departamento/santiago-metropolitana/5284573-san-pablo-1503-uda,410000,departamento
247urbano,Lord Cochrane 209,santiago,11-12-2019,5274633,-33.4493408,-70.6550903,Portal Inmobiliario,26,26,arriendo,Lord Cochrane 209,https://www.portalinmobiliario.com/arriendo/departamento/santiago-metropolitana/5274633-lord-cochrane-209-uda,290000,departamento
Fusión Inmobiliaria,Echaurren 424,santiago,11-12-2019,5275526,-33.4534302,-70.6659393,Portal Inmobiliario,75,70,arriendo,Echaurren 424,https://www.portalinmobiliario.com/arriendo/departamento/santiago-metropolitana/5275526-echaurren-424-uda,445000,departamento
Fuenzalida Propiedades Stgo. Centro,Estación Mapocho - Bandera / General Mac,santiago,12-12-2019,5279674,-33.4337006,-70.6529999,Portal Inmobiliario,92,92,arriendo,Estación Mapocho - Bandera / General Mac,https://www.portalinmobiliario.com/arriendo/departamento/santiago-metropolitana/5279674-estacion-mapocho-bandera-general-mac-uda,520000,departamento
Portilla Propiedades,Santo Domingo / Amunategui,santiago,13-12-2019,4823133,-33.4366951,-70.6569519,Portal Inmobiliario,26,26,arriendo,Santo Domingo / Amunategui,https://www.portalinmobiliario.com/arriendo/departamento/santiago-metropolitana/4823133-santo-domingo-amunategui-uda,270000,departamento
Palma Kitzing & Zúñiga Lamarque,Blanco Encalada Cerca Metro Toesca,santiago,14-12-2019,5285930,-33.456501,-70.6581573,Portal Inmobiliario,33,33,arriendo,Blanco Encalada Cerca Metro Toesca,https://www.portalinmobiliario.com/arriendo/departamento/santiago-metropolitana/5285930-blanco-encalada-cerca-metro-toesca-uda,280000,departamento
Mi Hogar,Barrio Republica,santiago,12-12-2019,5280476,-33.4527359,-70.663887,Portal Inmobiliario,53,45,arriendo,Barrio Republica,https://www.portalinmobiliario.com/arriendo/departamento/santiago-metropolitana/5280476-barrio-republica-uda,400000,departamento
Gisela Riffo Rozas,Tarapaca 876 - Departamento 10,santiago,10-12-2019,5272695,-33.46912,-70.6419983,Portal Inmobiliario,8,8,arriendo,Tarapaca 876 - Departamento 10,https://www.portalinmobiliario.com/arriendo/departamento/santiago-metropolitana/5272695-tarapaca-876-departamento-10-uda,355000,departamento
Newplace,Barrio Bellas Artes,santiago,16-12-2019,5288005,-33.4359207,-70.642067,Portal Inmobiliario,126,120,arriendo,Barrio Bellas Artes,https://www.portalinmobiliario.com/arriendo/departamento/santiago-metropolitana/5288005-barrio-bellas-artes-uda,800000,departamento
Mgmpropiedades,Manuel Antonio Tocornal 532,santiago,16-12-2019,5265738,-33.4497757,-70.6399231,Portal Inmobiliario,65,65,arriendo,Manuel Antonio Tocornal 532,https://www.portalinmobiliario.com/arriendo/departamento/santiago-metropolitana/5265738-manuel-antonio-tocornal-532-uda,420000,departamento
Gm Gestión Inmobiliaria,José Miguel Carrera 120,santiago,11-12-2019,5081705,-33.4489899,-70.6633606,Portal Inmobiliario,47,45,arriendo,José Miguel Carrera 120,https://www.portalinmobiliario.com/arriendo/departamento/santiago-metropolitana/5081705-jose-miguel-carrera-120-uda,380000,departamento
Isabel Achondo Propiedades,Tucapel Jimenez / Amoblado!!,santiago,13-12-2019,5269045,-33.4700775,-70.6427612,Portal Inmobiliario,45,43,arriendo,Tucapel Jimenez / Amoblado!!,https://www.portalinmobiliario.com/arriendo/departamento/santiago-metropolitana/5269045-tucapel-jimenezamoblado-uda,370000,departamento
Rk Propiedades,Metro Santa Ana / Mario Kreutzberger / San Martin,santiago,12-12-2019,5266836,-33.4358978,-70.6589966,Portal Inmobiliario,35,33,arriendo,Metro Santa Ana / Mario Kreutzberger / San Martin,https://www.portalinmobiliario.com/arriendo/departamento/santiago-metropolitana/5266836-metro-santa-ana-mario-kreutzbergersan-martin-uda,300000,departamento
Asesorias E Inversiones Leiva,Carmen 602,santiago,10-12-2019,5273205,-33.4509163,-70.6409378,Portal Inmobiliario,70,70,arriendo,Carmen 602,https://www.portalinmobiliario.com/arriendo/departamento/santiago-metropolitana/5273205-carmen-602-uda,450000,departamento
Ihouse Corredora Boutique,Vicuña Mackenna / Argomedo,santiago,09-12-2019,5269236,-33.4490013,-70.6320343,Portal Inmobiliario,57,55,arriendo,Vicuña Mackenna / Argomedo,https://www.portalinmobiliario.com/arriendo/departamento/santiago-metropolitana/5269236-vicuna-mackenna-argomedo-uda,430000,departamento
Wehrt Propiedades,San Martín / General Mackenna A Estrenar! 3d+ 2b,santiago,14-12-2019,5285415,-33.4334259,-70.6589355,Portal Inmobiliario,54,54,arriendo,San Martín / General Mackenna A Estrenar! 3d+ 2b,https://www.portalinmobiliario.com/arriendo/departamento/santiago-metropolitana/5285415-san-martin-general-mackenna-a-estrenar-3d-2b-uda,430000,departamento
Oss Properties Ltda.,Alonso De Ovalle  / Tarapaca,santiago,12-12-2019,5281682,-33.4461746,-70.6537018,Portal Inmobiliario,59,57,arriendo,Alonso De Ovalle  / Tarapaca,https://www.portalinmobiliario.com/arriendo/departamento/santiago-metropolitana/5281682-alonso-de-ovalle-tarapaca-uda,600000,departamento
Fuenzalida Propiedades Stgo. Centro,Metro Moneda - Lord Cochrane / Tarapacá,santiago,13-12-2019,5282736,-33.4486008,-70.6549988,Portal Inmobiliario,35,32,arriendo,Metro Moneda - Lord Cochrane / Tarapacá,https://www.portalinmobiliario.com/arriendo/departamento/santiago-metropolitana/5282736-metro-moneda-lord-cochranetarapaca-uda,280000,departamento
Arqus Propiedades,Metro Ñuble / Santa Elena,santiago,16-12-2019,5288036,-33.4655952,-70.6285019,Portal Inmobiliario,30,30,arriendo,Metro Ñuble / Santa Elena,https://www.portalinmobiliario.com/arriendo/departamento/santiago-metropolitana/5288036-metro-nuble-santa-elena-uda,290000,departamento
Medina & Cia. Propiedades,Santo Domingo / Metro Santa Ana,santiago,12-12-2019,5208692,-33.4368553,-70.6571732,Portal Inmobiliario,55,55,arriendo,Santo Domingo / Metro Santa Ana,https://www.portalinmobiliario.com/arriendo/departamento/santiago-metropolitana/5208692-santo-domingo-metro-santa-ana-uda,365000,departamento
E&l Asesorias Corretaje,Avenida Balmaceda,santiago,12-12-2019,5282046,-33.4295769,-70.66996,Portal Inmobiliario,67,65,arriendo,Avenida Balmaceda,https://www.portalinmobiliario.com/arriendo/departamento/santiago-metropolitana/5282046-avenida-balmaceda-uda,450000,departamento
Martin Propiedades,Lord Cochrane 302 - Departamento 308,santiago,13-12-2019,5284764,-33.4503593,-70.6545029,Portal Inmobiliario,65,60,arriendo,Lord Cochrane 302 - Departamento 308,https://www.portalinmobiliario.com/arriendo/departamento/santiago-metropolitana/5284764-lord-cochrane-302-departamento-308-uda,420000,departamento
Lecaros Propiedades,Arturo Prat 324,santiago,15-12-2019,5286917,-33.4493752,-70.6490479,Portal Inmobiliario,23,23,arriendo,Arturo Prat 324,https://www.portalinmobiliario.com/arriendo/departamento/santiago-metropolitana/5286917-arturo-prat-324-uda,230000,departamento
Abbo Limitada,General Mackenna 1555,santiago,12-12-2019,5281987,-33.4332275,-70.659729,Portal Inmobiliario,52,52,arriendo,General Mackenna 1555,https://www.portalinmobiliario.com/arriendo/departamento/santiago-metropolitana/5281987-general-mackenna-1555-uda,415000,departamento
Match Inmobiliario,Santiago Centro,santiago,10-12-2019,5271146,-33.4462262,-70.6606702,Portal Inmobiliario,55,55,arriendo,Santiago Centro,https://www.portalinmobiliario.com/arriendo/departamento/santiago-metropolitana/5271146-santiago-centro-uda,350000,departamento
Nexxos,Eysaguirre,santiago,11-12-2019,5274926,-33.4506989,-70.6415024,Portal Inmobiliario,59,59,arriendo,Eysaguirre,https://www.portalinmobiliario.com/arriendo/departamento/santiago-metropolitana/5274926-eysaguirre-uda,430000,departamento
Agrega Valor Inmobiliario,General Mackenna 1555 - Departamento 2701,santiago,09-12-2019,5270362,-33.4332275,-70.659729,Portal Inmobiliario,52,49,arriendo,General Mackenna 1555 - Departamento 2701,https://www.portalinmobiliario.com/arriendo/departamento/santiago-metropolitana/5270362-general-mackenna-1555-departamento-2701-uda,520000,departamento
Pro-rent Inversiones Inmobiliarias,San Isidro 435,santiago,11-12-2019,5274915,-33.4494743,-70.6434479,Portal Inmobiliario,40,38,arriendo,San Isidro 435,https://www.portalinmobiliario.com/arriendo/departamento/santiago-metropolitana/5274915-san-isidro-435-uda,330000,departamento
Remax Central,General Jofre 338,santiago,13-12-2019,5283043,-33.4454994,-70.6379013,Portal Inmobiliario,45,45,arriendo,General Jofre 338,https://www.portalinmobiliario.com/arriendo/departamento/santiago-metropolitana/5283043-general-jofre-338-uda,370000,departamento
Fuenzalida Propiedades Las Tranqueras,Metro Santa Lucía - Diagonal Paraguay,santiago,11-12-2019,5274683,-33.4441986,-70.6407013,Portal Inmobiliario,58,2,arriendo,Metro Santa Lucía - Diagonal Paraguay,https://www.portalinmobiliario.com/arriendo/departamento/santiago-metropolitana/5274683-metro-santa-lucia-diagonal-paraguay-uda,1590,departamento
Etchepare & Asociados,Penthouse / Parque Forestal,santiago,11-12-2019,5272497,-33.4364471,-70.6416855,Portal Inmobiliario,205,165,arriendo,Penthouse / Parque Forestal,https://www.portalinmobiliario.com/arriendo/departamento/santiago-metropolitana/5272497-penthouse-parque-forestal-uda,1000000,departamento
Assetplan Asesores De Inversión S.a.,Eleuterio Ramirez 1291,santiago,09-12-2019,5231971,-33.4497986,-70.6530991,Portal Inmobiliario,28,1,arriendo,Eleuterio Ramirez 1291,https://www.portalinmobiliario.com/arriendo/departamento/santiago-metropolitana/5231971-eleuterio-ramirez-1291-uda,280000,departamento
Stgo Habita Spa,Sazié 2496,santiago,12-12-2019,5280827,-33.451973,-70.671051,Portal Inmobiliario,70,70,arriendo,Sazié 2496,https://www.portalinmobiliario.com/arriendo/departamento/santiago-metropolitana/5280827-sazie-2496-uda,500000,departamento
Alfaro Propiedades,San Diego 516 - Departamento 415,santiago,10-12-2019,5273074,-33.4522781,-70.6501923,Portal Inmobiliario,28,28,arriendo,San Diego 516 - Departamento 415,https://www.portalinmobiliario.com/arriendo/departamento/santiago-metropolitana/5273074-san-diego-516-departamento-415-uda,270000,departamento
Varela Propiedades,Carabineros De Chile 22,santiago,15-12-2019,5286761,-33.4385948,-70.635643,Portal Inmobiliario,33,33,arriendo,Carabineros De Chile 22,https://www.portalinmobiliario.com/arriendo/departamento/santiago-metropolitana/5286761-carabineros-de-chile-22-uda,250000,departamento
Assetplan Asesores De Inversión S.a.,Vicuña Mackenna 2004,santiago,10-12-2019,5205032,-33.4704018,-70.6259995,Portal Inmobiliario,1,1,arriendo,Vicuña Mackenna 2004,https://www.portalinmobiliario.com/arriendo/departamento/santiago-metropolitana/5205032-vicuna-mackenna-2004-uda,345000,departamento
Prodesco,San Isidro 337,santiago,13-12-2019,5204163,-33.4482841,-70.6438446,Portal Inmobiliario,55,55,arriendo,San Isidro 337,https://www.portalinmobiliario.com/arriendo/departamento/santiago-metropolitana/5204163-san-isidro-337-uda,430000,departamento
Bofill Y Asociados,Catedral / Metro Santa Ana,santiago,16-12-2019,5288157,-33.4383011,-70.6576004,Portal Inmobiliario,49,44,arriendo,Catedral / Metro Santa Ana,https://www.portalinmobiliario.com/arriendo/departamento/santiago-metropolitana/5288157-catedral-metro-santa-ana-uda,400000,departamento
Consultors,Carmen / Argomedo,santiago,09-12-2019,5269922,-33.4513283,-70.6407776,Portal Inmobiliario,35,33,arriendo,Carmen / Argomedo,https://www.portalinmobiliario.com/arriendo/departamento/santiago-metropolitana/5269922-carmen-argomedo-uda,340000,departamento
Agrega Valor Inmobiliario,General Mackenna 1555 - Departamento 1608,santiago,09-12-2019,5270440,-33.4332275,-70.659729,Portal Inmobiliario,54,51,arriendo,General Mackenna 1555 - Departamento 1608,https://www.portalinmobiliario.com/arriendo/departamento/santiago-metropolitana/5270440-general-mackenna-1555-departamento-1608-uda,590000,departamento
Fuenzalida Propiedades Nueva Las Condes,Metro Santa Ana - Manuel Rodriguez,santiago,15-12-2019,5279641,-33.4388008,-70.6588974,Portal Inmobiliario,80,80,arriendo,Metro Santa Ana - Manuel Rodriguez,https://www.portalinmobiliario.com/arriendo/departamento/santiago-metropolitana/5279641-metro-santa-ana-manuel-rodriguez-uda,425000,departamento
Agrega Valor Inmobiliario,General Mackenna 1555 - Departamento 1506,santiago,09-12-2019,5270561,-33.4332275,-70.659729,Portal Inmobiliario,52,49,arriendo,General Mackenna 1555 - Departamento 1506,https://www.portalinmobiliario.com/arriendo/departamento/santiago-metropolitana/5270561-general-mackenna-1555-departamento-1506-uda,520000,departamento
Varela Propiedades,Vergara 586,santiago,15-12-2019,5286747,-33.4544029,-70.6611328,Portal Inmobiliario,56,56,arriendo,Vergara 586,https://www.portalinmobiliario.com/arriendo/departamento/santiago-metropolitana/5286747-vergara-586-uda,380000,departamento
Varela Propiedades,Carabineros De Chile 22,santiago,15-12-2019,5286766,-33.4385948,-70.635643,Portal Inmobiliario,40,40,arriendo,Carabineros De Chile 22,https://www.portalinmobiliario.com/arriendo/departamento/santiago-metropolitana/5286766-carabineros-de-chile-22-uda,280000,departamento
Abbo Limitada,General Mackenna 1555,santiago,13-12-2019,5282231,-33.4332275,-70.659729,Portal Inmobiliario,52,52,arriendo,General Mackenna 1555,https://www.portalinmobiliario.com/arriendo/departamento/santiago-metropolitana/5282231-general-mackenna-1555-uda,400000,departamento
Claudia Villalobos,Museo Bellas Artes,santiago,15-12-2019,5286822,-33.4384003,-70.6420746,Portal Inmobiliario,40,40,arriendo,Museo Bellas Artes,https://www.portalinmobiliario.com/arriendo/departamento/santiago-metropolitana/5286822-museo-bellas-artes-uda,380000,departamento
Rk Propiedades,San Francisco / Santa Isabel,santiago,12-12-2019,5209755,-33.4505463,-70.6471786,Portal Inmobiliario,41,35,arriendo,San Francisco / Santa Isabel,https://www.portalinmobiliario.com/arriendo/departamento/santiago-metropolitana/5209755-san-francisco-santa-isabel-uda,320000,departamento
Bl Propiedades,Santa Victoria 360 - Departamento 407,santiago,12-12-2019,5280897,-33.4474907,-70.6368561,Portal Inmobiliario,44,42,arriendo,Santa Victoria 360 - Departamento 407,https://www.portalinmobiliario.com/arriendo/departamento/santiago-metropolitana/5280897-santa-victoria-360-departamento-407-uda,360000,departamento
Patrimonio Inmobiliario Limitada,Nataniel Cox 1302,santiago,13-12-2019,5284498,-33.4626884,-70.6509705,Portal Inmobiliario,27,27,arriendo,Nataniel Cox 1302,https://www.portalinmobiliario.com/arriendo/departamento/santiago-metropolitana/5284498-nataniel-cox-1302-uda,270000,departamento
Maximizar Liderazgo Inmobiliario,Metro Parque Almagro / Como Nuevo / Disponibilidad Inmediata,santiago,13-12-2019,5282753,-33.449955,-70.6427307,Portal Inmobiliario,39,35,arriendo,Metro Parque Almagro / Como Nuevo / Disponibilidad Inmediata,https://www.portalinmobiliario.com/arriendo/departamento/santiago-metropolitana/5282753-metro-parque-almagro-como-nuevo-disponibilidad-inmediata-uda,290000,departamento
Propiedades García & Canessa,San Isidro / Santa Isabel,santiago,11-12-2019,5275404,-33.4461441,-70.6438675,Portal Inmobiliario,67,65,arriendo,San Isidro / Santa Isabel,https://www.portalinmobiliario.com/arriendo/departamento/santiago-metropolitana/5275404-san-isidro-santa-isabel-uda,430000,departamento
Arriendoasegurado.com,García Reyes,santiago,16-12-2019,5288126,-33.4440002,-70.6696014,Portal Inmobiliario,60,60,arriendo,García Reyes,https://www.portalinmobiliario.com/arriendo/departamento/santiago-metropolitana/5288126-garcia-reyes-uda,410000,departamento
Wehrt Propiedades,Metro Cal Y Canto / Estación Mapocho 3d+2b,santiago,12-12-2019,5151330,-33.4334259,-70.6589355,Portal Inmobiliario,54,54,arriendo,Metro Cal Y Canto / Estación Mapocho 3d+2b,https://www.portalinmobiliario.com/arriendo/departamento/santiago-metropolitana/5151330-metro-cal-y-canto-estacion-mapocho-3d2b-uda,450000,departamento
Capitalizarme.com,Arriendo Dpto 2d+2b+terraza+bodega. Sant,santiago,11-12-2019,5276163,-33.4687996,-70.6491013,Portal Inmobiliario,62,2,arriendo,Arriendo Dpto 2d+2b+terraza+bodega. Sant,https://www.portalinmobiliario.com/arriendo/departamento/santiago-metropolitana/5276163-arriendo-dpto-2d2bterrazabodega-sant-uda,350000,departamento
Assetplan Asesores De Inversión S.a.,Eleuterio Ramirez 1291 (+ Bod),santiago,13-12-2019,5285268,-33.4497986,-70.6530991,Portal Inmobiliario,44,2,arriendo,Eleuterio Ramirez 1291 (+ Bod),https://www.portalinmobiliario.com/arriendo/departamento/santiago-metropolitana/5285268-eleuterio-ramirez-1291-bod-uda,340000,departamento
Profer Propiedades,General Gana 1063 - Departamento 611,santiago,12-12-2019,5281647,-33.47089,-70.6479645,Portal Inmobiliario,25,25,arriendo,General Gana 1063 - Departamento 611,https://www.portalinmobiliario.com/arriendo/departamento/santiago-metropolitana/5281647-general-gana-1063-departamento-611-uda,230000,departamento
Marcelo Eduardo Maldonado Vasquez,"Catedral 3151, Santiago",santiago,12-12-2019,5281781,-33.4400101,-70.6782303,Portal Inmobiliario,34,32,arriendo,"Catedral 3151, Santiago",https://www.portalinmobiliario.com/arriendo/departamento/santiago-metropolitana/5281781-catedral-3151-santiago-uda,260000,departamento
Assetplan Asesores De Inversión S.a.,General Gana 1063 (+ Estac ),santiago,09-12-2019,5270825,-33.4710007,-70.6479034,Portal Inmobiliario,2,2,arriendo,General Gana 1063 (+ Estac ),https://www.portalinmobiliario.com/arriendo/departamento/santiago-metropolitana/5270825-general-gana-1063-estac--uda,370000,departamento
Procasa León - Suecia,Santa Isabel / Lia,santiago,12-12-2019,5279913,-33.4482994,-70.6384964,Portal Inmobiliario,46,1,arriendo,Santa Isabel / Lia,https://www.portalinmobiliario.com/arriendo/departamento/santiago-metropolitana/5279913-santa-isabellia-uda,320000,departamento
Guillermo Martinez,José Miguel Carrera 349 - Departamento 504,santiago,11-12-2019,5275415,-33.4518509,-70.6633606,Portal Inmobiliario,38,32,arriendo,José Miguel Carrera 349 - Departamento 504,https://www.portalinmobiliario.com/arriendo/departamento/santiago-metropolitana/5275415-jose-miguel-carrera-349-departamento-504-uda,330000,departamento
Peñafiel Propiedades Y Gestión Inmobiliaria,"Agustinas Esquina San Martin, Mejor Sector Del Centro,",santiago,13-12-2019,5274819,-33.4411316,-70.6577225,Portal Inmobiliario,40,37,arriendo,"Agustinas Esquina San Martin, Mejor Sector Del Centro,",https://www.portalinmobiliario.com/arriendo/departamento/santiago-metropolitana/5274819-agustinas-esquina-san-martin-mejor-sector-del-centro-uda,285000,departamento
Aloyd,A Pasos De Metro Toesca,santiago,10-12-2019,5273949,-33.4542007,-70.6565018,Portal Inmobiliario,53,50,arriendo,A Pasos De Metro Toesca,https://www.portalinmobiliario.com/arriendo/departamento/santiago-metropolitana/5273949-a-pasos-de-metro-toesca-uda,450000,departamento
Ma Propiedades Y Corretaje,Santa Isabel 431,santiago,15-12-2019,5286997,-33.4491539,-70.6398468,Portal Inmobiliario,65,65,arriendo,Santa Isabel 431,https://www.portalinmobiliario.com/arriendo/departamento/santiago-metropolitana/5286997-santa-isabel-431-uda,550000,departamento
Pablo Gonzalez,"Morandé 617, Santiago, Santiago",santiago,11-12-2019,5274856,-33.4362831,-70.654068,Portal Inmobiliario,70,65,arriendo,"Morandé 617, Santiago, Santiago",https://www.portalinmobiliario.com/arriendo/departamento/santiago-metropolitana/5274856-morande-617-santiago-santiago-uda,400000,departamento
Assetplan Asesores De Inversión S.a.,Lord Cochrane 220,santiago,10-12-2019,5273749,-33.4492989,-70.6542969,Portal Inmobiliario,32,1,arriendo,Lord Cochrane 220,https://www.portalinmobiliario.com/arriendo/departamento/santiago-metropolitana/5273749-lord-cochrane-220-uda,330000,departamento
Gm Gestión Inmobiliaria,José Miguel Carrera 120,santiago,11-12-2019,5113765,-33.4489899,-70.6633606,Portal Inmobiliario,47,45,arriendo,José Miguel Carrera 120,https://www.portalinmobiliario.com/arriendo/departamento/santiago-metropolitana/5113765-jose-miguel-carrera-120-uda,380000,departamento
Ph Propiedades,Metro Santa Lucia,santiago,09-12-2019,5270457,-33.4464302,-70.6435623,Portal Inmobiliario,30,30,arriendo,Metro Santa Lucia,https://www.portalinmobiliario.com/arriendo/departamento/santiago-metropolitana/5270457-metro-santa-lucia-uda,280000,departamento
Lorraine Landon Propiedades,Metro Santa Isabel,santiago,11-12-2019,5274022,-33.4476624,-70.6351776,Portal Inmobiliario,60,54,arriendo,Metro Santa Isabel,https://www.portalinmobiliario.com/arriendo/departamento/santiago-metropolitana/5274022-metro-santa-isabel-uda,420000,departamento
Procasa Jorge Pablo Caro Propiedades,Calle Merced / Av Libertador Bernardo O'hi,santiago,12-12-2019,5279858,-33.4369011,-70.6358032,Portal Inmobiliario,80,3,arriendo,Calle Merced / Av Libertador Bernardo O'hi,https://www.portalinmobiliario.com/arriendo/departamento/santiago-metropolitana/5279858-calle-mercedav-libertador-bernardo-ohi-uda,700000,departamento
Fuenzalida Propiedades El Golf,Metro Moneda - Tarapacá Con Nataniel Cox,santiago,13-12-2019,5282715,-33.4480019,-70.6539001,Portal Inmobiliario,33,33,arriendo,Metro Moneda - Tarapacá Con Nataniel Cox,https://www.portalinmobiliario.com/arriendo/departamento/santiago-metropolitana/5282715-metro-moneda-tarapaca-con-nataniel-cox-uda,300000,departamento
Remax Capital,Departamento En Arriendo / Lord Cochrane,santiago,12-12-2019,5271716,-33.4494019,-70.6549988,Portal Inmobiliario,40,40,arriendo,Departamento En Arriendo / Lord Cochrane,https://www.portalinmobiliario.com/arriendo/departamento/santiago-metropolitana/5271716-departamento-en-arriendo-lord-cochrane-uda,440000,departamento
Nexxos,Metro Santa Lucia,santiago,09-12-2019,5238867,-33.4473,-70.6468964,Portal Inmobiliario,52,52,arriendo,Metro Santa Lucia,https://www.portalinmobiliario.com/arriendo/departamento/santiago-metropolitana/5238867-metro-santa-lucia-uda,520000,departamento
Futuro Hogar,San Pablo / Metro Santa Ana,santiago,13-12-2019,5282520,-33.4342995,-70.6593018,Portal Inmobiliario,39,37,arriendo,San Pablo / Metro Santa Ana,https://www.portalinmobiliario.com/arriendo/departamento/santiago-metropolitana/5282520-san-pablometro-santa-ana-uda,350000,departamento
Dosque Y Riquelme Consultores Inmobiliarios,Vicuña Mackenna 2004,santiago,12-12-2019,5281526,-33.469593,-70.6247864,Portal Inmobiliario,47,44,arriendo,Vicuña Mackenna 2004,https://www.portalinmobiliario.com/arriendo/departamento/santiago-metropolitana/5281526-vicuna-mackenna-2004-uda,350000,departamento
Kw Chile,San Isidro Esquina Curico,santiago,14-12-2019,5285768,-33.4463005,-70.6439972,Portal Inmobiliario,65,65,arriendo,San Isidro Esquina Curico,https://www.portalinmobiliario.com/arriendo/departamento/santiago-metropolitana/5285768-san-isidro-esquina-curico-uda,630000,departamento
Fernández Valdés Propiedades,Vicuña Mackenna  / Santa Isabel,santiago,11-12-2019,5278398,-33.4492416,-70.6320419,Portal Inmobiliario,35,35,arriendo,Vicuña Mackenna  / Santa Isabel,https://www.portalinmobiliario.com/arriendo/departamento/santiago-metropolitana/5278398-vicuna-mackenna-santa-isabel-uda,300000,departamento
Assetplan Asesores De Inversión S.a.,San Francisco 242,santiago,09-12-2019,5270841,-33.4473991,-70.646698,Portal Inmobiliario,1,1,arriendo,San Francisco 242,https://www.portalinmobiliario.com/arriendo/departamento/santiago-metropolitana/5270841-san-francisco-242-uda,295000,departamento
Villagra Propiedades,Metro Toesca,santiago,16-12-2019,5287869,-33.4552956,-70.6564407,Portal Inmobiliario,37,37,arriendo,Metro Toesca,https://www.portalinmobiliario.com/arriendo/departamento/santiago-metropolitana/5287869-metro-toesca-uda,320000,departamento
Evhome,Dpto A Pasos Metro Santa Ana Con Estacionamiento Y Bodega.,santiago,13-12-2019,5270978,-33.4390602,-70.657402,Portal Inmobiliario,80,75,arriendo,Dpto A Pasos Metro Santa Ana Con Estacionamiento Y Bodega.,https://www.portalinmobiliario.com/arriendo/departamento/santiago-metropolitana/5270978-dpto-a-pasos-metro-santa-ana-con-estacionamiento-y-bodega-uda,430000,departamento
Procasa Araneda & Aguiar Propiedades,Metro U. De Chile / Tarapaca / San Francisco,santiago,16-12-2019,5287395,-33.4472008,-70.6480026,Portal Inmobiliario,73,68,arriendo,Metro U. De Chile / Tarapaca / San Francisco,https://www.portalinmobiliario.com/arriendo/departamento/santiago-metropolitana/5287395-metro-u-de-chiletarapacasan-francisco-uda,450000,departamento
Prodesco,Gorbea 2455,santiago,13-12-2019,5243127,-33.4538612,-70.6703796,Portal Inmobiliario,86,80,arriendo,Gorbea 2455,https://www.portalinmobiliario.com/arriendo/departamento/santiago-metropolitana/5243127-gorbea-2455-uda,430000,departamento
Procasa Araneda & Aguiar Propiedades,Metro Quinta Normal / Compañia De Jesus / Es,santiago,13-12-2019,5282916,-33.4413986,-70.6761017,Portal Inmobiliario,80,60,arriendo,Metro Quinta Normal / Compañia De Jesus / Es,https://www.portalinmobiliario.com/arriendo/departamento/santiago-metropolitana/5282916-metro-quinta-normalcompania-de-jesuses-uda,420000,departamento
Arrendaria Propiedades,San Isidro 151,santiago,11-12-2019,5274174,-33.4454002,-70.6442947,Portal Inmobiliario,75,70,arriendo,San Isidro 151,https://www.portalinmobiliario.com/arriendo/departamento/santiago-metropolitana/5274174-san-isidro-151-uda,550000,departamento
Keyclick.cl,Metro Toesca,santiago,12-12-2019,5281500,-33.4559708,-70.6624603,Portal Inmobiliario,45,45,arriendo,Metro Toesca,https://www.portalinmobiliario.com/arriendo/departamento/santiago-metropolitana/5281500-metro-toesca-uda,380000,departamento
Correa Montes,"Los Heroes, Como Nuevo, Terraza!",santiago,09-12-2019,5236029,-33.4436989,-70.6588974,Portal Inmobiliario,35,33,arriendo,"Los Heroes, Como Nuevo, Terraza!",https://www.portalinmobiliario.com/arriendo/departamento/santiago-metropolitana/5236029-los-heroes-como-nuevo-terraza-uda,300000,departamento
Arjona Propiedades,Metro Parque Bustamante,santiago,11-12-2019,5138223,-33.4446831,-70.6340866,Portal Inmobiliario,40,35,arriendo,Metro Parque Bustamante,https://www.portalinmobiliario.com/arriendo/departamento/santiago-metropolitana/5138223-metro-parque-bustamante-uda,360000,departamento
Corredorpro,Arriendo Amplio Departamento Apto Para Oficinas. 3d + 2b En Pleno Centro De Santiago.,santiago,14-12-2019,5285535,-33.4414482,-70.6465912,Portal Inmobiliario,106,106,arriendo,Arriendo Amplio Departamento Apto Para Oficinas. 3d + 2b En Pleno Centro De Santiago.,https://www.portalinmobiliario.com/arriendo/departamento/santiago-metropolitana/5285535-arriendo-amplio-departamento-apto-para-oficinas-3d-2b-en-pleno-centro-de-santiago-uda,750000,departamento
Eligeprop Corredores,Almirante Latorre 602,santiago,12-12-2019,5282031,-33.4551697,-70.6641083,Portal Inmobiliario,59,59,arriendo,Almirante Latorre 602,https://www.portalinmobiliario.com/arriendo/departamento/santiago-metropolitana/5282031-almirante-latorre-602-uda,420000,departamento
Mo.propiedades Spa.,Santa Isabel / San Francisco,santiago,12-12-2019,5202306,-33.4503784,-70.6457901,Portal Inmobiliario,70,66,arriendo,Santa Isabel / San Francisco,https://www.portalinmobiliario.com/arriendo/departamento/santiago-metropolitana/5202306-santa-isabel-san-francisco-uda,500000,departamento
Servivienda,Lord Cochrane 635,santiago,16-12-2019,5287748,-33.4538803,-70.6544342,Portal Inmobiliario,43,41,arriendo,Lord Cochrane 635,https://www.portalinmobiliario.com/arriendo/departamento/santiago-metropolitana/5287748-lord-cochrane-635-uda,370000,departamento
Tuprop,Antiguo Remodelado Lastarria 2d,santiago,16-12-2019,5287250,-33.4384804,-70.640686,Portal Inmobiliario,70,70,arriendo,Antiguo Remodelado Lastarria 2d,https://www.portalinmobiliario.com/arriendo/departamento/santiago-metropolitana/5287250-antiguo-remodelado-lastarria-2d-uda,600000,departamento
Portilla Propiedades,Huerfanos / Morande,santiago,13-12-2019,5261544,-33.4398994,-70.6536484,Portal Inmobiliario,52,52,arriendo,Huerfanos / Morande,https://www.portalinmobiliario.com/arriendo/departamento/santiago-metropolitana/5261544-huerfanos-morande-uda,420000,departamento
Inmobiliaria E Inversiones Alfa Ltda,Nataniel Cox 117,santiago,12-12-2019,5281269,-33.4467773,-70.6539536,Portal Inmobiliario,37,37,arriendo,Nataniel Cox 117,https://www.portalinmobiliario.com/arriendo/departamento/santiago-metropolitana/5281269-nataniel-cox-117-uda,260000,departamento
Casa Linda Propiedades,Lindo Depto. 1 Dormitorio Santo Domingo / Amunategui,santiago,14-12-2019,5286297,-33.4372482,-70.656395,Portal Inmobiliario,43,40,arriendo,Lindo Depto. 1 Dormitorio Santo Domingo / Amunategui,https://www.portalinmobiliario.com/arriendo/departamento/santiago-metropolitana/5286297-lindo-depto-1-dormitorio-santo-domingo-amunategui-uda,300000,departamento
Hco Asesorías Y Corretaje,"Barrio Universitario, Amoblado",santiago,13-12-2019,5285335,-33.4507484,-70.6645508,Portal Inmobiliario,59,57,arriendo,"Barrio Universitario, Amoblado",https://www.portalinmobiliario.com/arriendo/departamento/santiago-metropolitana/5285335-barrio-universitario-amoblado-uda,410000,departamento
Prourbe,Studio Amoblado / Metro U Católica,santiago,09-12-2019,5255345,-33.4403992,-70.6417007,Portal Inmobiliario,30,28,arriendo,Studio Amoblado / Metro U Católica,https://www.portalinmobiliario.com/arriendo/departamento/santiago-metropolitana/5255345-studio-amobladometro-u-catolica-uda,350000,departamento
Droguett Propiedades,Vicuña Mackenna / Santa Isabel,santiago,13-12-2019,5284916,-33.4483604,-70.6322632,Portal Inmobiliario,45,45,arriendo,Vicuña Mackenna / Santa Isabel,https://www.portalinmobiliario.com/arriendo/departamento/santiago-metropolitana/5284916-vicuna-mackenna-santa-isabel-uda,300000,departamento
Capterrae,Toro Mazotte 64,santiago,13-12-2019,5284652,-33.4550552,-70.6917725,Portal Inmobiliario,35,31,arriendo,Toro Mazotte 64,https://www.portalinmobiliario.com/arriendo/departamento/santiago-metropolitana/5284652-toro-mazotte-64-uda,250000,departamento
Assetplan Asesores De Inversión S.a.,San Isidro 45,santiago,09-12-2019,5231972,-33.4434013,-70.6447983,Portal Inmobiliario,30,1,arriendo,San Isidro 45,https://www.portalinmobiliario.com/arriendo/departamento/santiago-metropolitana/5231972-san-isidro-45-uda,305000,departamento
Nexxos,Centro,santiago,14-12-2019,5285583,-33.4789009,-70.6632996,Portal Inmobiliario,45,45,arriendo,Centro,https://www.portalinmobiliario.com/arriendo/departamento/santiago-metropolitana/5285583-centro-uda,350000,departamento
Barseval Propiedades,Santo Domingo / Teatinos,santiago,12-12-2019,5280686,-33.4368744,-70.6549377,Portal Inmobiliario,37,35,arriendo,Santo Domingo / Teatinos,https://www.portalinmobiliario.com/arriendo/departamento/santiago-metropolitana/5280686-santo-domingo-teatinos-uda,280000,departamento
Ruta Inmobiliaria,Santa Isabel,santiago,12-12-2019,5280765,-33.4508018,-70.646347,Portal Inmobiliario,60,60,arriendo,Santa Isabel,https://www.portalinmobiliario.com/arriendo/departamento/santiago-metropolitana/5280765-santa-isabel-uda,400000,departamento
Fiah Propiedades,Parque Almagro,santiago,12-12-2019,5245005,-33.451149,-70.6506424,Portal Inmobiliario,54,50,arriendo,Parque Almagro,https://www.portalinmobiliario.com/arriendo/departamento/santiago-metropolitana/5245005-parque-almagro-uda,350000,departamento
Vivanco Propiedades,Estupendo Depto A Pasos De Cal Y Canto,santiago,13-12-2019,5285305,-33.4300995,-70.6666031,Portal Inmobiliario,50,48,arriendo,Estupendo Depto A Pasos De Cal Y Canto,https://www.portalinmobiliario.com/arriendo/departamento/santiago-metropolitana/5285305-estupendo-depto-a-pasos-de-cal-y-canto-uda,380000,departamento
Claudia Villalobos,Museo De Bellas Artes,santiago,15-12-2019,5286811,-33.4384003,-70.6420746,Portal Inmobiliario,40,40,arriendo,Museo De Bellas Artes,https://www.portalinmobiliario.com/arriendo/departamento/santiago-metropolitana/5286811-museo-de-bellas-artes-uda,430000,departamento
Barseval Propiedades,Vergara / Toesca,santiago,13-12-2019,5283162,-33.4538994,-70.6613007,Portal Inmobiliario,42,37,arriendo,Vergara / Toesca,https://www.portalinmobiliario.com/arriendo/departamento/santiago-metropolitana/5283162-vergara-toesca-uda,290000,departamento
Daniela Carrasco Toledo,Santa Victoria 366 - Departamento 15,santiago,11-12-2019,5278991,-33.4478989,-70.638176,Portal Inmobiliario,45,45,arriendo,Santa Victoria 366 - Departamento 15,https://www.portalinmobiliario.com/arriendo/departamento/santiago-metropolitana/5278991-santa-victoria-366-departamento-15-uda,295000,departamento
3a Gestión Inmobiliaria,Club Hípico 1528 - Departamento 919,santiago,14-12-2019,5286448,-33.4678764,-70.6644821,Portal Inmobiliario,60,58,arriendo,Club Hípico 1528 - Departamento 919,https://www.portalinmobiliario.com/arriendo/departamento/santiago-metropolitana/5286448-club-hipico-1528-departamento-919-uda,350000,departamento
Cobo Propiedades,Tarapacá  / San Francisco,santiago,13-12-2019,5283211,-33.4466209,-70.64608,Portal Inmobiliario,53,52,arriendo,Tarapacá  / San Francisco,https://www.portalinmobiliario.com/arriendo/departamento/santiago-metropolitana/5283211-tarapaca-san-francisco-uda,340000,departamento
Hans Robles,Fray Camilo Henríquez 686 - Departamento 105,santiago,11-12-2019,5275304,-33.4512253,-70.6333389,Portal Inmobiliario,48,48,arriendo,Fray Camilo Henríquez 686 - Departamento 105,https://www.portalinmobiliario.com/arriendo/departamento/santiago-metropolitana/5275304-fray-camilo-henriquez-686-departamento-105-uda,390000,departamento
Carolina Tapia,Yungay Con Cueto,santiago,11-12-2019,5274913,-33.4430008,-70.6730347,Portal Inmobiliario,33,35,arriendo,Yungay Con Cueto,https://www.portalinmobiliario.com/arriendo/departamento/santiago-metropolitana/5274913-yungay-con-cueto-uda,280000,departamento
Maximizar Liderazgo Inmobiliario,Amplio Departamento A Una Cuadra Metro Toesca Disponible A Partir Del 01 Enero,santiago,13-12-2019,5282764,-33.4546242,-70.6601486,Portal Inmobiliario,50,45,arriendo,Amplio Departamento A Una Cuadra Metro Toesca Disponible A Partir Del 01 Enero,https://www.portalinmobiliario.com/arriendo/departamento/santiago-metropolitana/5282764-amplio-departamento-a-una-cuadra-metro-toesca-disponible-a-partir-del-01-enero-uda,250000,departamento
Fernando Enrique Mendeville Dumont,Ismael Valdés Vergara 654,santiago,10-12-2019,5273003,-33.4345551,-70.6465988,Portal Inmobiliario,83,75,arriendo,Ismael Valdés Vergara 654,https://www.portalinmobiliario.com/arriendo/departamento/santiago-metropolitana/5273003-ismael-valdes-vergara-654-uda,530000,departamento
Barseval Propiedades,Diagonal Paraguay / Avda. Vicuña Mackenna,santiago,11-12-2019,5274854,-33.4420319,-70.6345139,Portal Inmobiliario,48,43,arriendo,Diagonal Paraguay / Avda. Vicuña Mackenna,https://www.portalinmobiliario.com/arriendo/departamento/santiago-metropolitana/5274854-diagonal-paraguay-avda-vicuna-mackenna-uda,300000,departamento
Cata Brochet Propiedades,Almirante La Torre / Grajales,santiago,11-12-2019,5274167,-33.4514008,-70.6641998,Portal Inmobiliario,68,68,arriendo,Almirante La Torre / Grajales,https://www.portalinmobiliario.com/arriendo/departamento/santiago-metropolitana/5274167-almirante-la-torre-grajales-uda,430000,departamento
Priscila Suazo Silva,Lord Cochrane 136,santiago,13-12-2019,5271751,-33.4473267,-70.6546249,Portal Inmobiliario,37,35,arriendo,Lord Cochrane 136,https://www.portalinmobiliario.com/arriendo/departamento/santiago-metropolitana/5271751-lord-cochrane-136-uda,270000,departamento
A&c Propiedades,Excelente Departamento Con La Mejor Vista Al Parque Ohiggins Metro Rondizzoni,santiago,11-12-2019,5277814,-33.4708061,-70.6610641,Portal Inmobiliario,70,60,arriendo,Excelente Departamento Con La Mejor Vista Al Parque Ohiggins Metro Rondizzoni,https://www.portalinmobiliario.com/arriendo/departamento/santiago-metropolitana/5277814-excelente-departamento-con-la-mejor-vista-al-parque-ohiggins-metro-rondizzoni-uda,350000,departamento
Paulina Alejandra Pinto Fuentealba,"Chiloé 1690, Santiago",santiago,12-12-2019,5279487,-33.4681854,-70.6451263,Portal Inmobiliario,42,40,arriendo,"Chiloé 1690, Santiago",https://www.portalinmobiliario.com/arriendo/departamento/santiago-metropolitana/5279487-chiloe-1690-santiago-uda,280000,departamento
Nexxos,Metro Moneda / Los Héroes,santiago,09-12-2019,5260356,-33.4424019,-70.6594009,Portal Inmobiliario,44,42,arriendo,Metro Moneda / Los Héroes,https://www.portalinmobiliario.com/arriendo/departamento/santiago-metropolitana/5260356-metro-monedalos-heroes-uda,375000,departamento
Soraya Martínez,"Diagonal Paraguay 110, Santiago",santiago,09-12-2019,5269209,-33.4423027,-70.6354446,Portal Inmobiliario,70,66,arriendo,"Diagonal Paraguay 110, Santiago",https://www.portalinmobiliario.com/arriendo/departamento/santiago-metropolitana/5269209-diagonal-paraguay-110-santiago-uda,450000,departamento
Ermita Gurruchaga Andrade,Club Hípico 1604,santiago,10-12-2019,5272356,-33.4687004,-70.6646729,Portal Inmobiliario,46,40,arriendo,Club Hípico 1604,https://www.portalinmobiliario.com/arriendo/departamento/santiago-metropolitana/5272356-club-hipico-1604-uda,290000,departamento
Mackenzie Propiedades,"Zenteno 1490, Piso 16 Oriente (av, Matta / Parque O´higgins)",santiago,10-12-2019,5272993,-33.4654045,-70.6498184,Portal Inmobiliario,48,48,arriendo,"Zenteno 1490, Piso 16 Oriente (av, Matta / Parque O´higgins)",https://www.portalinmobiliario.com/arriendo/departamento/santiago-metropolitana/5272993-zenteno-1490-piso-16-oriente-av-matta-parque-ohiggins-uda,310000,departamento
Stgo Habita Spa,Marín 395,santiago,12-12-2019,5280902,-33.4465485,-70.6383667,Portal Inmobiliario,45,45,arriendo,Marín 395,https://www.portalinmobiliario.com/arriendo/departamento/santiago-metropolitana/5280902-marin-395-uda,300000,departamento
Mi Hogar,Metro Estación Santa Lucía,santiago,12-12-2019,5280454,-33.4464302,-70.6435623,Portal Inmobiliario,40,40,arriendo,Metro Estación Santa Lucía,https://www.portalinmobiliario.com/arriendo/departamento/santiago-metropolitana/5280454-metro-estacion-santa-lucia-uda,280000,departamento
Propiedades Valeriasoledad Y Asociados,Victoria  / San Francisco,santiago,10-12-2019,5271294,-33.4615135,-70.6460648,Portal Inmobiliario,37,37,arriendo,Victoria  / San Francisco,https://www.portalinmobiliario.com/arriendo/departamento/santiago-metropolitana/5271294-victoria-san-francisco-uda,300000,departamento
Searle Propiedades,Metro Isabel Y Metro Irarrazabal,santiago,13-12-2019,5284574,-33.4492416,-70.6320419,Portal Inmobiliario,37,35,arriendo,Metro Isabel Y Metro Irarrazabal,https://www.portalinmobiliario.com/arriendo/departamento/santiago-metropolitana/5284574-metro-isabel-y-metro-irarrazabal-uda,265000,departamento
Barseval Propiedades,General Jofre / Av. Vicuña Mackenna,santiago,11-12-2019,5274847,-33.4444275,-70.6344299,Portal Inmobiliario,38,31,arriendo,General Jofre / Av. Vicuña Mackenna,https://www.portalinmobiliario.com/arriendo/departamento/santiago-metropolitana/5274847-general-jofre-av-vicuna-mackenna-uda,300000,departamento
Assetplan Asesores De Inversión S.a.,Merced 562,santiago,09-12-2019,5270842,-33.4379997,-70.6449966,Portal Inmobiliario,1,1,arriendo,Merced 562,https://www.portalinmobiliario.com/arriendo/departamento/santiago-metropolitana/5270842-merced-562-uda,295000,departamento
Fuenzalida Propiedades Nueva Las Condes,Plaza De Armas - Monjitas,santiago,12-12-2019,5279639,-33.4371986,-70.6473999,Portal Inmobiliario,58,58,arriendo,Plaza De Armas - Monjitas,https://www.portalinmobiliario.com/arriendo/departamento/santiago-metropolitana/5279639-plaza-de-armas-monjitas-uda,360000,departamento
K Y S Gestión Inmobiliaria,Parque Los Reyes - Barrio Yungay,santiago,10-12-2019,5273489,-33.4273376,-70.6746826,Portal Inmobiliario,40,35,arriendo,Parque Los Reyes - Barrio Yungay,https://www.portalinmobiliario.com/arriendo/departamento/santiago-metropolitana/5273489-parque-los-reyes-barrio-yungay-uda,260000,departamento
Barseval Propiedades,Av. Manuel Antonio Matta / Santa Elena,santiago,11-12-2019,5276192,-33.4554672,-70.6292267,Portal Inmobiliario,31,29,arriendo,Av. Manuel Antonio Matta / Santa Elena,https://www.portalinmobiliario.com/arriendo/departamento/santiago-metropolitana/5276192-av-manuel-antonio-matta-santa-elena-uda,270000,departamento
Gesin Propiedades,"Metro Bellas Artes, Merced 562",santiago,12-12-2019,5281778,-33.4379845,-70.6447754,Portal Inmobiliario,35,34,arriendo,"Metro Bellas Artes, Merced 562",https://www.portalinmobiliario.com/arriendo/departamento/santiago-metropolitana/5281778-metro-bellas-artes-merced-562-uda,300000,departamento
Nicolas Gonzalez,General Gana 1063,santiago,11-12-2019,5274126,-33.47089,-70.6479645,Portal Inmobiliario,20,20,arriendo,General Gana 1063,https://www.portalinmobiliario.com/arriendo/departamento/santiago-metropolitana/5274126-general-gana-1063-uda,230000,departamento
Barseval Propiedades,Marín / Tocornal,santiago,11-12-2019,5276088,-33.447361,-70.6409073,Portal Inmobiliario,47,45,arriendo,Marín / Tocornal,https://www.portalinmobiliario.com/arriendo/departamento/santiago-metropolitana/5276088-marin-tocornal-uda,350000,departamento
Fuenzalida Propiedades Providencia,Sector Av. Matta - Metro Av. Matta,santiago,13-12-2019,5282723,-33.4631996,-70.6488037,Portal Inmobiliario,41,40,arriendo,Sector Av. Matta - Metro Av. Matta,https://www.portalinmobiliario.com/arriendo/departamento/santiago-metropolitana/5282723-sector-av-matta-metro-av-matta-uda,300000,departamento
Irene Esther Pooley Pinto,Sector Barrio Lastarria,santiago,12-12-2019,5281324,-33.4391098,-70.6410675,Portal Inmobiliario,35,35,arriendo,Sector Barrio Lastarria,https://www.portalinmobiliario.com/arriendo/departamento/santiago-metropolitana/5281324-sector-barrio-lastarria-uda,300000,departamento
Omar Galvez,Diagonal Paraguay 360 - Departamento 213,santiago,13-12-2019,5284891,-33.4432182,-70.6402435,Portal Inmobiliario,85,70,arriendo,Diagonal Paraguay 360 - Departamento 213,https://www.portalinmobiliario.com/arriendo/departamento/santiago-metropolitana/5284891-diagonal-paraguay-360-departamento-213-uda,400000,departamento
High Tower Real Estate,Metro U. Católica,santiago,14-12-2019,5286085,-33.4383812,-70.6386795,Portal Inmobiliario,50,50,arriendo,Metro U. Católica,https://www.portalinmobiliario.com/arriendo/departamento/santiago-metropolitana/5286085-metro-u-catolica-uda,200000,departamento
Century 21 Invernor,Santa Isabel,santiago,10-12-2019,5271913,-33.4508018,-70.6485977,Portal Inmobiliario,33,34,arriendo,Santa Isabel,https://www.portalinmobiliario.com/arriendo/departamento/santiago-metropolitana/5271913-santa-isabel-uda,270000,departamento
Margar Propiedades Gestion Inmobiliaria,Nataniel Cox / Coquimbo,santiago,11-12-2019,5274600,-33.456192,-70.6520004,Portal Inmobiliario,50,46,arriendo,Nataniel Cox / Coquimbo,https://www.portalinmobiliario.com/arriendo/departamento/santiago-metropolitana/5274600-nataniel-cox-coquimbo-uda,300000,departamento
Propiedades Valeriasoledad Y Asociados,Alonso De Ovalle 1650,santiago,11-12-2019,5274940,-33.447319,-70.6585388,Portal Inmobiliario,61,58,arriendo,Alonso De Ovalle 1650,https://www.portalinmobiliario.com/arriendo/departamento/santiago-metropolitana/5274940-alonso-de-ovalle-1650-uda,350000,departamento
De Mateo Propiedades,San Francisco / Tarapacá,santiago,11-12-2019,5278656,-33.4479561,-70.6475677,Portal Inmobiliario,36,33,arriendo,San Francisco / Tarapacá,https://www.portalinmobiliario.com/arriendo/departamento/santiago-metropolitana/5278656-san-francisco-tarapaca-uda,280000,departamento
Etchepare & Asociados,Catedral / Metro Santa Ana,santiago,11-12-2019,5241966,-33.4377708,-70.6554337,Portal Inmobiliario,51,48,arriendo,Catedral / Metro Santa Ana,https://www.portalinmobiliario.com/arriendo/departamento/santiago-metropolitana/5241966-catedral-metro-santa-ana-uda,335000,departamento
Alejandro Jaime V. & Asociados,Avda. Presidente Balmaceda / Maturana,santiago,12-12-2019,5279829,-33.4300003,-70.6676025,Portal Inmobiliario,60,54,arriendo,Avda. Presidente Balmaceda / Maturana,https://www.portalinmobiliario.com/arriendo/departamento/santiago-metropolitana/5279829-avda-presidente-balmaceda-maturana-uda,360000,departamento
Carolina Escalona,"Avenida 10 De Julio, Santiago",santiago,12-12-2019,5280907,-33.4532852,-70.6439819,Portal Inmobiliario,65,65,arriendo,"Avenida 10 De Julio, Santiago",https://www.portalinmobiliario.com/arriendo/departamento/santiago-metropolitana/5280907-avenida-10-de-julio-santiago-uda,350000,departamento
Arqus Propiedades,Metro Ñuble / Santa Elena,santiago,09-12-2019,5269233,-33.4655952,-70.6285019,Portal Inmobiliario,30,30,arriendo,Metro Ñuble / Santa Elena,https://www.portalinmobiliario.com/arriendo/departamento/santiago-metropolitana/5269233-metro-nuble-santa-elena-uda,290000,departamento
Rk Propiedades,Serrano / Eyzaguirre,santiago,12-12-2019,5214574,-33.4522667,-70.6478348,Portal Inmobiliario,20,20,arriendo,Serrano / Eyzaguirre,https://www.portalinmobiliario.com/arriendo/departamento/santiago-metropolitana/5214574-serrano-eyzaguirre-uda,220000,departamento
Wonenhaus Gestión Inmobiliaria,Calle Herrera,santiago,11-12-2019,5275766,-33.4456177,-70.6770096,Portal Inmobiliario,78,75,arriendo,Calle Herrera,https://www.portalinmobiliario.com/arriendo/departamento/santiago-metropolitana/5275766-calle-herrera-uda,400000,departamento
Rios Larraín Propiedades,José Victorino Lastarria 104 - Departamento 625,santiago,13-12-2019,5283389,-33.4399185,-70.6415558,Portal Inmobiliario,100,50,arriendo,José Victorino Lastarria 104 - Departamento 625,https://www.portalinmobiliario.com/arriendo/departamento/santiago-metropolitana/5283389-jose-victorino-lastarria-104-departamento-625-uda,400000,departamento
Alejandro Jaime V. & Asociados,San Martin - Huérfanos,santiago,09-12-2019,5239381,-33.4402008,-70.6578979,Portal Inmobiliario,30,30,arriendo,San Martin - Huérfanos,https://www.portalinmobiliario.com/arriendo/departamento/santiago-metropolitana/5239381-san-martin-huerfanos-uda,250000,departamento
Saa Gestión Inmobiliaria,San Isidro 234 - Departamento 2713,santiago,11-12-2019,5211637,-33.4464302,-70.6435623,Portal Inmobiliario,30,30,arriendo,San Isidro 234 - Departamento 2713,https://www.portalinmobiliario.com/arriendo/departamento/santiago-metropolitana/5211637-san-isidro-234-departamento-2713-uda,250000,departamento
Century 21 Andes,Ejercito Libertador,santiago,09-12-2019,5265795,-33.4536018,-70.6604996,Portal Inmobiliario,34,30,arriendo,Ejercito Libertador,https://www.portalinmobiliario.com/arriendo/departamento/santiago-metropolitana/5265795-ejercito-libertador-uda,260000,departamento
Gema Propiedades,Avenida Manuel Antonio Matta 747 - Departamento 802,santiago,11-12-2019,5279062,-33.4583664,-70.6441345,Portal Inmobiliario,52,51,arriendo,Avenida Manuel Antonio Matta 747 - Departamento 802,https://www.portalinmobiliario.com/arriendo/departamento/santiago-metropolitana/5279062-avenida-manuel-antonio-matta-747-departamento-802-uda,380000,departamento
Remax Advance Ii,Amunátegui,santiago,12-12-2019,5280033,-33.4333992,-70.6575012,Portal Inmobiliario,55,40,arriendo,Amunátegui,https://www.portalinmobiliario.com/arriendo/departamento/santiago-metropolitana/5280033-amunategui-uda,310000,departamento
Vbmpropiedades,Lord Cochrane 376,santiago,10-12-2019,5272926,-33.4507523,-70.6542358,Portal Inmobiliario,57,50,arriendo,Lord Cochrane 376,https://www.portalinmobiliario.com/arriendo/departamento/santiago-metropolitana/5272926-lord-cochrane-376-uda,370000,departamento
Fuenzalida Propiedades Nueva Las Condes,Barrio Yungay - Metro Santa Ana,santiago,10-12-2019,5271567,-33.4375,-70.6798019,Portal Inmobiliario,2,1,arriendo,Barrio Yungay - Metro Santa Ana,https://www.portalinmobiliario.com/arriendo/departamento/santiago-metropolitana/5271567-barrio-yungay-metro-santa-ana-uda,320000,departamento
V & S Asesorias & Gestion Inmobiliaria,Cercanias Metro Republica,santiago,12-12-2019,5267192,-33.4537697,-70.6692352,Portal Inmobiliario,44,42,arriendo,Cercanias Metro Republica,https://www.portalinmobiliario.com/arriendo/departamento/santiago-metropolitana/5267192-cercanias-metro-republica-uda,270000,departamento
Vivanco Propiedades,Estupenda Departamento Metro Santa Ana,santiago,13-12-2019,5285302,-33.4385986,-70.6582031,Portal Inmobiliario,40,37,arriendo,Estupenda Departamento Metro Santa Ana,https://www.portalinmobiliario.com/arriendo/departamento/santiago-metropolitana/5285302-estupenda-departamento-metro-santa-ana-uda,300000,departamento
Arqus Propiedades,San Francisco / Metro Santa Isabel,santiago,10-12-2019,5273204,-33.4491348,-70.6475677,Portal Inmobiliario,30,30,arriendo,San Francisco / Metro Santa Isabel,https://www.portalinmobiliario.com/arriendo/departamento/santiago-metropolitana/5273204-san-francisco-metro-santa-isabel-uda,250000,departamento
Re/max-pro,Santa Victoria - Departamento 411,santiago,11-12-2019,5274033,-33.4488907,-70.6692657,Portal Inmobiliario,80,80,arriendo,Santa Victoria - Departamento 411,https://www.portalinmobiliario.com/arriendo/departamento/santiago-metropolitana/5274033-santa-victoria-departamento-411-uda,470000,departamento
Escobar Y Cousiño Propiedades,Echaurren 274 - Departamento 412,santiago,12-12-2019,5280671,-33.451519,-70.6659698,Portal Inmobiliario,20,20,arriendo,Echaurren 274 - Departamento 412,https://www.portalinmobiliario.com/arriendo/departamento/santiago-metropolitana/5280671-echaurren-274-departamento-412-uda,260000,departamento
Fidel Adasme,"San Isidro 250 - San Isidro, Santiago",santiago,10-12-2019,5273226,-33.4467812,-70.6436844,Portal Inmobiliario,54,54,arriendo,"San Isidro 250 - San Isidro, Santiago",https://www.portalinmobiliario.com/arriendo/departamento/santiago-metropolitana/5273226-san-isidro-250-san-isidro-santiago-uda,400000,departamento
Gloria Ahumada,Vicuña Mackenna 567 - Departamento C,santiago,13-12-2019,5282524,-33.4484291,-70.6321716,Portal Inmobiliario,85,85,arriendo,Vicuña Mackenna 567 - Departamento C,https://www.portalinmobiliario.com/arriendo/departamento/santiago-metropolitana/5282524-vicuna-mackenna-567-departamento-c-uda,500000,departamento
Wehrt Propiedades,"Atencion!!! Merced, Con Bodega",santiago,12-12-2019,5273239,-33.4379807,-70.6449738,Portal Inmobiliario,40,40,arriendo,"Atencion!!! Merced, Con Bodega",https://www.portalinmobiliario.com/arriendo/departamento/santiago-metropolitana/5273239-atencion-merced-con-bodega-uda,300000,departamento
Baquedano Rentas,Santa Isabel 951,santiago,10-12-2019,5271405,-33.4507599,-70.6486359,Portal Inmobiliario,39,39,arriendo,Santa Isabel 951,https://www.portalinmobiliario.com/arriendo/departamento/santiago-metropolitana/5271405-santa-isabel-951-uda,255000,departamento
Nexxos,Moneda,santiago,09-12-2019,5265504,-33.4426994,-70.6592026,Portal Inmobiliario,33,33,arriendo,Moneda,https://www.portalinmobiliario.com/arriendo/departamento/santiago-metropolitana/5265504-moneda-uda,35000,departamento
Nexxos,Metro Santa Isabel,santiago,12-12-2019,5281677,-33.4476013,-70.6339035,Portal Inmobiliario,1,1,arriendo,Metro Santa Isabel,https://www.portalinmobiliario.com/arriendo/departamento/santiago-metropolitana/5281677-metro-santa-isabel-uda,290000,departamento
Assetplan Asesores De Inversión S.a.,Vicuña Mackenna 327,santiago,12-12-2019,5279876,-33.4457932,-70.6329575,Portal Inmobiliario,45,43,arriendo,Vicuña Mackenna 327,https://www.portalinmobiliario.com/arriendo/departamento/santiago-metropolitana/5279876-vicuna-mackenna-327-uda,370000,departamento
Jean Pierre Dupouy Cerda,Avenida Portugal 941 - Departamento 1207,santiago,13-12-2019,5282325,-33.4544792,-70.6338043,Portal Inmobiliario,55,53,arriendo,Avenida Portugal 941 - Departamento 1207,https://www.portalinmobiliario.com/arriendo/departamento/santiago-metropolitana/5282325-avenida-portugal-941-departamento-1207-uda,460000,departamento
Vilches Propiedades,Metro República,santiago,11-12-2019,5275926,-33.4531097,-70.6652527,Portal Inmobiliario,40,40,arriendo,Metro República,https://www.portalinmobiliario.com/arriendo/departamento/santiago-metropolitana/5275926-metro-republica-uda,290000,departamento
Asesorías Inmobiliarias Freddy Cerda H. E.i.r.l.,San Isidro / Santa Isabel,santiago,12-12-2019,5282210,-33.450592,-70.6427612,Portal Inmobiliario,35,33,arriendo,San Isidro / Santa Isabel,https://www.portalinmobiliario.com/arriendo/departamento/santiago-metropolitana/5282210-san-isidrosanta-isabel-uda,280000,departamento
Godia Propiedades,Lord Cochrane,santiago,11-12-2019,5155836,-33.4650993,-70.6529999,Portal Inmobiliario,30,30,arriendo,Lord Cochrane,https://www.portalinmobiliario.com/arriendo/departamento/santiago-metropolitana/5155836-lord-cochrane-uda,270000,departamento
Procasa Araneda & Aguiar Propiedades,Metro Santa Lucia / Carmen / Santa Isabel,santiago,13-12-2019,5282917,-33.4497986,-70.6415024,Portal Inmobiliario,60,58,arriendo,Metro Santa Lucia / Carmen / Santa Isabel,https://www.portalinmobiliario.com/arriendo/departamento/santiago-metropolitana/5282917-metro-santa-luciacarmensanta-isabel-uda,405000,departamento
Arriendoasegurado.com,Eleuterio Ramírez,santiago,12-12-2019,5280537,-33.4976997,-70.6603012,Portal Inmobiliario,42,40,arriendo,Eleuterio Ramírez,https://www.portalinmobiliario.com/arriendo/departamento/santiago-metropolitana/5280537-eleuterio-ramirez-uda,330000,departamento
Patrimonio Inmobiliario Limitada,Avenida España 471,santiago,13-12-2019,5284599,-33.4545708,-70.6691513,Portal Inmobiliario,36,36,arriendo,Avenida España 471,https://www.portalinmobiliario.com/arriendo/departamento/santiago-metropolitana/5284599-avenida-espana-471-uda,300000,departamento
Nexxos,Tarapaca Con Serrano,santiago,12-12-2019,5279962,-33.4471016,-70.6486969,Portal Inmobiliario,58,54,arriendo,Tarapaca Con Serrano,https://www.portalinmobiliario.com/arriendo/departamento/santiago-metropolitana/5279962-tarapaca-con-serrano-uda,400000,departamento
Correa & Zuñiga Propiedades,Domeyko 1999 - Departamento 708,santiago,10-12-2019,5272705,-33.4558105,-70.6624603,Portal Inmobiliario,40,35,arriendo,Domeyko 1999 - Departamento 708,https://www.portalinmobiliario.com/arriendo/departamento/santiago-metropolitana/5272705-domeyko-1999-departamento-708-uda,290000,departamento
Alto Propiedades,Blanco Encalada 2501,santiago,11-12-2019,5165947,-33.4579659,-70.6703262,Portal Inmobiliario,48,42,arriendo,Blanco Encalada 2501,https://www.portalinmobiliario.com/arriendo/departamento/santiago-metropolitana/5165947-blanco-encalada-2501-uda,310000,departamento
Prourbe,Santa Rosa / Metro Santa Lucía,santiago,12-12-2019,5279279,-33.4457016,-70.645401,Portal Inmobiliario,36,31,arriendo,Santa Rosa / Metro Santa Lucía,https://www.portalinmobiliario.com/arriendo/departamento/santiago-metropolitana/5279279-santa-rosametro-santa-lucia-uda,275000,departamento
Richard Sandoval,"Tucapel Jiménez 76, Santiago - Departamento 304",santiago,11-12-2019,5278201,-33.4433327,-70.6591263,Portal Inmobiliario,25,25,arriendo,"Tucapel Jiménez 76, Santiago - Departamento 304",https://www.portalinmobiliario.com/arriendo/departamento/santiago-metropolitana/5278201-tucapel-jimenez-76-santiago-departamento-304-uda,250000,departamento
Dosque Y Riquelme Consultores Inmobiliarios,Avenida Portugal 810,santiago,12-12-2019,5281558,-33.4528122,-70.6338425,Portal Inmobiliario,40,38,arriendo,Avenida Portugal 810,https://www.portalinmobiliario.com/arriendo/departamento/santiago-metropolitana/5281558-avenida-portugal-810-uda,290000,departamento
Alejandro Jaime V. & Asociados,San Isidro / Alonso Ovalle,santiago,09-12-2019,5256832,-33.4449386,-70.6443081,Portal Inmobiliario,30,30,arriendo,San Isidro / Alonso Ovalle,https://www.portalinmobiliario.com/arriendo/departamento/santiago-metropolitana/5256832-san-isidro-alonso-ovalle-uda,265000,departamento
Arriendoasegurado.com,San Martín,santiago,12-12-2019,5282213,-33.4338989,-70.6585999,Portal Inmobiliario,70,62,arriendo,San Martín,https://www.portalinmobiliario.com/arriendo/departamento/santiago-metropolitana/5282213-san-martin-uda,500000,departamento
Barseval Propiedades,Vergara / Metro Toesca,santiago,11-12-2019,5276082,-33.4538994,-70.6613007,Portal Inmobiliario,36,33,arriendo,Vergara / Metro Toesca,https://www.portalinmobiliario.com/arriendo/departamento/santiago-metropolitana/5276082-vergara-metro-toesca-uda,290000,departamento
C. R. Propiedades,José Miguel Carrera 359 - Departamento 611,santiago,13-12-2019,5284529,-33.451973,-70.6631699,Portal Inmobiliario,41,38,arriendo,José Miguel Carrera 359 - Departamento 611,https://www.portalinmobiliario.com/arriendo/departamento/santiago-metropolitana/5284529-jose-miguel-carrera-359-departamento-611-uda,290000,departamento
Assetplan Asesores De Inversión S.a.,Vicuña Mackenna 327,santiago,10-12-2019,5273745,-33.4458008,-70.6330032,Portal Inmobiliario,23,1,arriendo,Vicuña Mackenna 327,https://www.portalinmobiliario.com/arriendo/departamento/santiago-metropolitana/5273745-vicuna-mackenna-327-uda,265000,departamento
Rk Propiedades,Padre Alonso De Ovalle / San Francisco,santiago,12-12-2019,5192418,-33.4455223,-70.6469955,Portal Inmobiliario,60,56,arriendo,Padre Alonso De Ovalle / San Francisco,https://www.portalinmobiliario.com/arriendo/departamento/santiago-metropolitana/5192418-padre-alonso-de-ovalle-san-francisco-uda,380000,departamento
Wehrt Propiedades,San Martín / General Mackenna A Estrenar! 3d+ 2b,santiago,12-12-2019,5208866,-33.4334259,-70.6589355,Portal Inmobiliario,54,54,arriendo,San Martín / General Mackenna A Estrenar! 3d+ 2b,https://www.portalinmobiliario.com/arriendo/departamento/santiago-metropolitana/5208866-san-martin-general-mackenna-a-estrenar-3d-2b-uda,430000,departamento
Patrimonio Inmobiliario Limitada,Nataniel Cox 223,santiago,13-12-2019,5284948,-33.4491768,-70.6536789,Portal Inmobiliario,54,54,arriendo,Nataniel Cox 223,https://www.portalinmobiliario.com/arriendo/departamento/santiago-metropolitana/5284948-nataniel-cox-223-uda,350000,departamento
Gestión Propiedades,Carmen / Santa Isabel,santiago,10-12-2019,5273113,-33.4498672,-70.6415329,Portal Inmobiliario,62,61,arriendo,Carmen / Santa Isabel,https://www.portalinmobiliario.com/arriendo/departamento/santiago-metropolitana/5273113-carmen-santa-isabel-uda,425000,departamento
Correa & Zuñiga Propiedades,Santo Domingo 504 - Departamento 63,santiago,10-12-2019,5272708,-33.4358673,-70.6445618,Portal Inmobiliario,100,90,arriendo,Santo Domingo 504 - Departamento 63,https://www.portalinmobiliario.com/arriendo/departamento/santiago-metropolitana/5272708-santo-domingo-504-departamento-63-uda,580000,departamento
De Castro Propiedades,Metro Santa Lucía,santiago,12-12-2019,5281619,-33.4485168,-70.6438141,Portal Inmobiliario,62,60,arriendo,Metro Santa Lucía,https://www.portalinmobiliario.com/arriendo/departamento/santiago-metropolitana/5281619-metro-santa-lucia-uda,1412,departamento
Vivaqui.com,Serrano - Santa Isabel,santiago,12-12-2019,5280617,-33.4528008,-70.6479034,Portal Inmobiliario,31,29,arriendo,Serrano - Santa Isabel,https://www.portalinmobiliario.com/arriendo/departamento/santiago-metropolitana/5280617-serrano-santa-isabel-uda,265000,departamento
Etchepare & Asociados,San Martín / San Pablo,santiago,11-12-2019,5272480,-33.4339523,-70.6585846,Portal Inmobiliario,47,45,arriendo,San Martín / San Pablo,https://www.portalinmobiliario.com/arriendo/departamento/santiago-metropolitana/5272480-san-martin-san-pablo-uda,350000,departamento
Patrimonio Inmobiliario Limitada,Arturo Prat 636,santiago,13-12-2019,5284892,-33.4529648,-70.6483765,Portal Inmobiliario,54,54,arriendo,Arturo Prat 636,https://www.portalinmobiliario.com/arriendo/departamento/santiago-metropolitana/5284892-arturo-prat-636-uda,380000,departamento
Liderar Propiedades,Catedral 3040,santiago,13-12-2019,5088040,-33.4401398,-70.6769867,Portal Inmobiliario,61,61,arriendo,Catedral 3040,https://www.portalinmobiliario.com/arriendo/departamento/santiago-metropolitana/5088040-catedral-3040-uda,435000,departamento
Rk Propiedades,Padre Alonso De Ovalle / Serrano,santiago,12-12-2019,5192409,-33.445488,-70.6470795,Portal Inmobiliario,60,56,arriendo,Padre Alonso De Ovalle / Serrano,https://www.portalinmobiliario.com/arriendo/departamento/santiago-metropolitana/5192409-padre-alonso-de-ovalle-serrano-uda,380000,departamento
Berni Ortiz,Depto. 1 Dorm. Bellas Artes (amoblado),santiago,10-12-2019,5272000,-33.4368095,-70.6472855,Portal Inmobiliario,33,30,arriendo,Depto. 1 Dorm. Bellas Artes (amoblado),https://www.portalinmobiliario.com/arriendo/departamento/santiago-metropolitana/5272000-depto-1-dorm-bellas-artes-amoblado-uda,350000,departamento
Sotomayor Propiedades,Portugal 910 / Metro Irarrazaval,santiago,13-12-2019,5283995,-33.4540329,-70.6333923,Portal Inmobiliario,49,46,arriendo,Portugal 910 / Metro Irarrazaval,https://www.portalinmobiliario.com/arriendo/departamento/santiago-metropolitana/5283995-portugal-910-metro-irarrazaval-uda,400000,departamento
González Monreal Propiedades,General Gana 1063,santiago,11-12-2019,5277948,-33.47089,-70.6479645,Portal Inmobiliario,40,20,arriendo,General Gana 1063,https://www.portalinmobiliario.com/arriendo/departamento/santiago-metropolitana/5277948-general-gana-1063-uda,230000,departamento
Profer Propiedades,Metro U De Chile,santiago,13-12-2019,5284781,-33.4491539,-70.6497116,Portal Inmobiliario,50,50,arriendo,Metro U De Chile,https://www.portalinmobiliario.com/arriendo/departamento/santiago-metropolitana/5284781-metro-u-de-chile-uda,340000,departamento
Prourbe,Av Ricardo Cumming / Parque De Los Reyes,santiago,09-12-2019,5207858,-33.4295998,-70.6691971,Portal Inmobiliario,58,55,arriendo,Av Ricardo Cumming / Parque De Los Reyes,https://www.portalinmobiliario.com/arriendo/departamento/santiago-metropolitana/5207858-av-ricardo-cumming-parque-de-los-reyes-uda,365000,departamento
Nexxos,"Eleuterio Ramirez 740, Metro Sta Lucia",santiago,11-12-2019,5274272,-33.4482994,-70.6455994,Portal Inmobiliario,38,38,arriendo,"Eleuterio Ramirez 740, Metro Sta Lucia",https://www.portalinmobiliario.com/arriendo/departamento/santiago-metropolitana/5274272-eleuterio-ramirez-740-metro-sta-lucia-uda,350000,departamento
Holman Ortiz Aedo Propiedades,Avenida Manuel Antonio Matta 99,santiago,12-12-2019,5279921,-33.4554482,-70.6310654,Portal Inmobiliario,30,30,arriendo,Avenida Manuel Antonio Matta 99,https://www.portalinmobiliario.com/arriendo/departamento/santiago-metropolitana/5279921-avenida-manuel-antonio-matta-99-uda,260000,departamento
Easy Prop,Arriendo Departamento Recien Remodelado,santiago,12-12-2019,5281636,-33.4471016,-70.6499023,Portal Inmobiliario,50,50,arriendo,Arriendo Departamento Recien Remodelado,https://www.portalinmobiliario.com/arriendo/departamento/santiago-metropolitana/5281636-arriendo-departamento-recien-remodelado-uda,400000,departamento
Radrigan Propiedades,Merced 717 - Departamento 504,santiago,11-12-2019,5278287,-33.4380341,-70.6471176,Portal Inmobiliario,25,25,arriendo,Merced 717 - Departamento 504,https://www.portalinmobiliario.com/arriendo/departamento/santiago-metropolitana/5278287-merced-717-departamento-504-uda,230000,departamento
E&l Asesorias Corretaje,Santa Isabel,santiago,12-12-2019,5282120,-33.4538116,-70.6566772,Portal Inmobiliario,45,45,arriendo,Santa Isabel,https://www.portalinmobiliario.com/arriendo/departamento/santiago-metropolitana/5282120-santa-isabel-uda,310000,departamento
Assetplan Asesores De Inversión S.a.,Av. Portugal 755,santiago,09-12-2019,5270821,-33.4524002,-70.6343994,Portal Inmobiliario,43,2,arriendo,Av. Portugal 755,https://www.portalinmobiliario.com/arriendo/departamento/santiago-metropolitana/5270821-av-portugal-755-uda,360000,departamento
Alejandro Jaime V. & Asociados,Marcoleta - San Isidro,santiago,09-12-2019,5239382,-33.4436989,-70.6437988,Portal Inmobiliario,40,40,arriendo,Marcoleta - San Isidro,https://www.portalinmobiliario.com/arriendo/departamento/santiago-metropolitana/5239382-marcoleta-san-isidro-uda,270000,departamento
Rg Propiedades,Diagonal Cervantes / Plaza De Armas,santiago,12-12-2019,5279672,-33.4343262,-70.6495361,Portal Inmobiliario,38,38,arriendo,Diagonal Cervantes / Plaza De Armas,https://www.portalinmobiliario.com/arriendo/departamento/santiago-metropolitana/5279672-diagonal-cervantes-plaza-de-armas-uda,250000,departamento
Novahome,Metro Plaza De Armas,santiago,10-12-2019,5272375,-33.4414215,-70.6450424,Portal Inmobiliario,45,45,arriendo,Metro Plaza De Armas,https://www.portalinmobiliario.com/arriendo/departamento/santiago-metropolitana/5272375-metro-plaza-de-armas-uda,270000,departamento
Develop Propiedades Spa,Lord Cochrane Con Eleuterio Ramirez,santiago,10-12-2019,5272147,-33.4504013,-70.6545029,Portal Inmobiliario,34,32,arriendo,Lord Cochrane Con Eleuterio Ramirez,https://www.portalinmobiliario.com/arriendo/departamento/santiago-metropolitana/5272147-lord-cochrane-con-eleuterio-ramirez-uda,290000,departamento
Ximena Alejandra Pardo Muñoz,V.mackenna / Sta.isabel,santiago,12-12-2019,5280680,-33.4463501,-70.6340027,Portal Inmobiliario,55,55,arriendo,V.mackenna / Sta.isabel,https://www.portalinmobiliario.com/arriendo/departamento/santiago-metropolitana/5280680-vmackennastaisabel-uda,400000,departamento
Ageprop Bienes Raíces,Vicuña Mackenna 955,santiago,10-12-2019,5273595,-33.453846,-70.6305771,Portal Inmobiliario,50,50,arriendo,Vicuña Mackenna 955,https://www.portalinmobiliario.com/arriendo/departamento/santiago-metropolitana/5273595-vicuna-mackenna-955-uda,320000,departamento
Prourbe,Lastarria,santiago,10-12-2019,5271246,-33.4379997,-70.6411972,Portal Inmobiliario,50,50,arriendo,Lastarria,https://www.portalinmobiliario.com/arriendo/departamento/santiago-metropolitana/5271246-lastarria-uda,350000,departamento
Barbara Raquel Bustamante Valenzuela,"San Isidro 435, Santiago",santiago,09-12-2019,5270020,-33.4494858,-70.6434784,Portal Inmobiliario,45,47,arriendo,"San Isidro 435, Santiago",https://www.portalinmobiliario.com/arriendo/departamento/santiago-metropolitana/5270020-san-isidro-435-santiago-uda,320000,departamento
Rk Propiedades,Metro Santa Isabel,santiago,12-12-2019,5243912,-33.44944,-70.631813,Portal Inmobiliario,52,44,arriendo,Metro Santa Isabel,https://www.portalinmobiliario.com/arriendo/departamento/santiago-metropolitana/5243912-metro-santa-isabel-uda,365000,departamento
Vatro Gestión Inmobiliaria,Santo Domingo 1391,santiago,11-12-2019,5278337,-33.4365196,-70.6569748,Portal Inmobiliario,60,30,arriendo,Santo Domingo 1391,https://www.portalinmobiliario.com/arriendo/departamento/santiago-metropolitana/5278337-santo-domingo-1391-uda,240000,departamento
María Francisca Andrade Barbosa,Santa Isabel 176,santiago,12-12-2019,5281400,-33.4484062,-70.6341782,Portal Inmobiliario,32,30,arriendo,Santa Isabel 176,https://www.portalinmobiliario.com/arriendo/departamento/santiago-metropolitana/5281400-santa-isabel-176-uda,240000,departamento
Erasmo Fuenzalida Ogalde,Lira 245 - Departamento 615,santiago,11-12-2019,5274147,-33.4464607,-70.6400604,Portal Inmobiliario,63,58,arriendo,Lira 245 - Departamento 615,https://www.portalinmobiliario.com/arriendo/departamento/santiago-metropolitana/5274147-lira-245-departamento-615-uda,380000,departamento
Caysa Propiedades,San Isidro / Metro Matta / Santa Isabel,santiago,09-12-2019,5269683,-33.4520416,-70.6426544,Portal Inmobiliario,48,45,arriendo,San Isidro / Metro Matta / Santa Isabel,https://www.portalinmobiliario.com/arriendo/departamento/santiago-metropolitana/5269683-san-isidro-metro-matta-santa-isabel-uda,320000,departamento
Lionel Ojeda Y Cía Ltda.,Riquelme Con Moneda.... Entrada,santiago,11-12-2019,5275769,-33.4427299,-70.6609421,Portal Inmobiliario,50,50,arriendo,Riquelme Con Moneda.... Entrada,https://www.portalinmobiliario.com/arriendo/departamento/santiago-metropolitana/5275769-riquelme-con-moneda-entrada-uda,310000,departamento
Monica Rebolledo Soto,Rodulfo Phillippi 73,santiago,10-12-2019,5272729,-33.4507713,-70.673584,Portal Inmobiliario,20,20,arriendo,Rodulfo Phillippi 73,https://www.portalinmobiliario.com/arriendo/departamento/santiago-metropolitana/5272729-rodulfo-phillippi-73-uda,200000,departamento
